,zip,lat,lng,city,state_id,state_name,county_name,Average Temperature (Kelvin),Average Air Pressure (hPa),Average Humidity (%),Average Daily Precipitation (mm),fips,elevation,WAT_LAND,NVG_LAND,URB_LAND,GRS_LAND,FOR_LAND,CULTRF_LAND,CULTIR_LAND,CULT_LAND,SQ1,SQ2,SQ3,SQ4,SQ5,SQ6,SQ7
0,1001,42.06259,-72.62589,Agawam,MA,Massachusetts,Hampden,270.80499999999995,1016.1225,72.215,0.125,25013,48,0.0,0.0,50.3227005004883,3.2683839797973597,33.2156372070313,11.368428230285598,1.8248499631881698,13.1932783126831,3,2,1,1,1,1,1
1,1002,42.37492,-72.4621,Amherst,MA,Massachusetts,Hampshire,270.80499999999995,1016.1225,72.215,0.125,25015,53,0.0,0.0,73.7150421142578,2.32303547859192,23.617061614990202,0.0,0.344860792160034,0.344860792160034,3,3,1,1,1,1,1
2,1005,42.42017,-72.10615,Barre,MA,Massachusetts,Worcester,270.725,1014.96,71.7525,0.135,25027,280,0.0,0.0,15.376299858093299,7.43422555923462,76.0075378417969,0.8354042172431949,0.34653240442276,1.18193662166595,3,3,1,1,1,1,1
3,1029,42.19632,-73.04836,East Otis,MA,Massachusetts,Berkshire,270.80499999999995,1016.1225,72.215,0.125,25003,533,0.0,0.0,1.6078759431838998,8.79912090301514,89.4558792114258,0.0,0.13712400197982802,0.13712400197982802,3,2,2,1,1,1,2
4,1054,42.47363,-72.48746,Leverett,MA,Massachusetts,Franklin,270.80499999999995,1016.1225,72.215,0.125,25011,97,0.0,0.0,2.28219985961914,9.22915267944336,85.8553695678711,0.45131945610046403,2.18195796012878,2.6332774162292503,3,3,1,1,1,1,1
5,1431,42.676520000000004,-71.82321999999998,Ashby,MA,Massachusetts,Middlesex,270.665,1016.715,69.785,0.1325,25017,55,0.0,0.0,9.00334167480469,8.088962554931639,82.2361373901367,0.0,0.6715580821037289,0.6715580821037289,3,3,1,1,1,1,1
6,1810,42.64655,-71.16505,Andover,MA,Massachusetts,Essex,270.665,1016.715,69.785,0.1325,25009,22,0.0,0.0,0.0,0.0,0.0,0.0,0.00113761099055409,0.00113761099055409,0,0,0,0,0,0,0
7,2019,42.07774000000001,-71.47409,Bellingham,MA,Massachusetts,Norfolk,272.165,1016.14,71.2475,0.135,25021,69,0.0,0.0,10.987799644470199,7.69838714599609,78.3149032592773,2.40462064743042,0.594289183616638,2.99890995025635,3,3,1,1,1,1,1
8,2043,42.21678,-70.88499,Hingham,MA,Massachusetts,Plymouth,271.775,1016.035,69.2525,0.135,25023,46,21.583499908447298,0.0,1.72594738006592,6.86010408401489,69.7429962158203,0.0,0.0874525308609009,0.0874525308609009,3,3,1,1,1,1,1
9,2048,42.016259999999996,-71.21868,Mansfield,MA,Massachusetts,Bristol,272.165,1016.14,71.2475,0.135,25005,24,0.0,0.0,4.40959978103638,9.047993659973141,83.9737319946289,2.4904589653015097,0.0782158300280571,2.56867480278015,3,3,1,1,1,1,1
10,2108,42.35767,-71.06505,Boston,MA,Massachusetts,Suffolk,271.7475,1016.0925,69.655,0.135,25025,5,0.0,0.0,0.0,0.0,0.0,0.0,0.0350980795919895,0.0350980795919895,0,0,0,0,0,0,0
11,2532,41.75162,-70.59728,Buzzards Bay,MA,Massachusetts,Barnstable,272.165,1016.14,71.2475,0.135,25001,-1,19.7257995605469,0.0,10.041600227356,6.50823450088501,61.595851898193395,1.1896333694458001,0.9388803839683529,2.1285138130188,3,3,1,1,1,1,1
12,2535,41.34896,-70.74629,Chilmark,MA,Massachusetts,Dukes,272.165,1016.14,71.2475,0.135,25007,7,0.0,0.0,0.0,0.0,0.0,0.0,0.0,0.0,0,0,0,0,0,0,0
13,2554,41.285379999999996,-70.07982,Nantucket,MA,Massachusetts,Nantucket,272.165,1016.14,71.2475,0.135,25019,6,0.0,0.0,0.0,0.0,0.0,0.0,0.10133309662342099,0.10133309662342099,0,0,0,0,0,0,0
14,2802,41.95195,-71.45534,Albion,RI,Rhode Island,Providence,272.165,1016.14,71.2475,0.135,44007,101,0.0,0.0,49.242401123046896,4.43765926361084,44.3271598815918,1.42096829414368,0.571811676025391,1.99277997016907,2,2,1,2,1,1,1
15,2804,41.43188,-71.77235999999998,Ashaway,RI,Rhode Island,Washington,272.165,1016.14,71.2475,0.135,44009,22,0.0,0.0,0.0,0.0,0.0,0.0,0.0,0.0,0,0,0,0,0,0,0
16,2816,41.69086,-71.61976999999997,Coventry,RI,Rhode Island,Kent,272.165,1016.14,71.2475,0.135,44003,105,0.0,0.0,2.83089995384216,8.28264617919922,85.454345703125,2.7503654956817596,0.681742489337921,3.4321079254150404,3,3,1,1,1,1,1
17,2835,41.51497,-71.3771,Jamestown,RI,Rhode Island,Newport,272.165,1016.14,71.2475,0.135,44005,17,0.0,0.0,0.0,0.0,0.0,0.0,0.0,0.0,0,0,0,0,0,0,0
18,3031,42.87036,-71.6079,Amherst,NH,New Hampshire,Hillsborough,269.73749999999995,1015.325,69.2625,0.0975,33011,207,0.0,0.0,1.59869992733002,9.42935371398926,87.10760498046879,1.65931677818298,0.20502470433711997,1.86434149742126,3,3,1,1,1,1,1
19,3032,42.9906,-71.34379,Auburn,NH,New Hampshire,Rockingham,269.73749999999995,1015.325,69.2625,0.0975,33015,44,0.985899925231934,0.0,3.5832536220550497,8.49859619140625,86.40060424804692,0.0,0.531646072864532,0.531646072864532,3,2,1,1,1,1,1
20,3046,43.10184,-71.60561,Dunbarton,NH,New Hampshire,Merrimack,269.73749999999995,1015.325,69.2625,0.0975,33013,127,3.90139985084534,0.0,9.03735828399658,7.767849922180179,78.971549987793,0.0,0.321841895580292,0.321841895580292,3,3,2,1,1,1,2
21,3215,43.9453,-71.45281999999997,Waterville Valley,NH,New Hampshire,Grafton,269.73749999999995,1015.325,69.2625,0.0975,33009,517,0.0,0.0,0.96287876367569,12.4453134536743,84.1222457885742,2.40039086341858,0.0691707879304886,2.4695615768432595,2,2,3,1,1,1,3
22,3218,43.33463,-71.28921,Barnstead,NH,New Hampshire,Belknap,269.73749999999995,1015.325,69.2625,0.0975,33001,297,0.0,0.0,0.640929102897644,8.878927230834961,90.26727294921879,0.0,0.21287089586257898,0.21287089586257898,3,3,2,1,1,1,2
23,3227,43.82774000000001,-71.4678,Center Sandwich,NH,New Hampshire,Carroll,269.73749999999995,1015.325,69.2625,0.0975,33003,136,0.0,0.0,1.26598656177521,8.83456993103027,89.8163299560547,0.0,0.08311350643634799,0.08311350643634799,3,2,2,1,1,1,2
24,3280,43.18298,-72.08925,Washington,NH,New Hampshire,Sullivan,269.73749999999995,1015.325,69.2625,0.0975,33019,427,12.899599075317399,0.0,0.712474286556244,7.73190641403198,78.60609436035159,3.7252902984619103e-09,0.0499256886541843,0.0499256923794746,3,3,1,1,1,1,1
25,3431,42.96265,-72.29556,Keene,NH,New Hampshire,Cheshire,269.73749999999995,1015.325,69.2625,0.0975,33005,321,0.0,0.0,1.04475831985474,8.85660171508789,90.0402984619141,0.0,0.0583416782319546,0.0583416782319546,3,3,1,1,1,1,1
26,3570,44.49905,-71.15716,Berlin,NH,New Hampshire,Coos,266.0575,1011.095,80.585,0.02,33007,391,0.0,0.0,0.7277873754501339,9.42396640777588,89.44381713867192,0.360293537378311,0.0441358312964439,0.40442937612533597,3,3,2,1,1,1,2
27,3820,43.188790000000004,-70.88678,Dover,NH,New Hampshire,Strafford,269.73749999999995,1015.325,69.2625,0.0975,33017,77,0.0,0.0,4.20020008087158,8.67221641540527,84.87818908691409,1.77778387069702,0.471610486507416,2.24939441680908,3,2,1,1,1,1,1
28,3901,43.30056,-70.84329,Berwick,ME,Maine,York,269.73749999999995,1015.325,69.2625,0.0975,23031,56,6.0,0.0,2.1831026077270503,8.20916271209717,83.458137512207,0.0,0.149597302079201,0.149597302079201,2,2,1,2,1,1,1
29,4003,43.73158,-69.98824,Bailey Island,ME,Maine,Cumberland,269.73749999999995,1015.325,69.2625,0.0975,23005,62,16.2826995849609,0.0,41.7322006225586,4.88150930404663,35.890327453613295,1.21307826042175,0.00018461630679667,1.21326291561127,2,2,1,1,1,1,1
30,4008,44.03716,-69.86206999999999,Bowdoinham,ME,Maine,Sagadahoc,269.73749999999995,1015.325,69.2625,0.0975,23023,17,5.0,0.0,0.99372386932373,8.418613433837889,85.5874862670898,0.0,0.000176116795046255,0.000176116795046255,3,2,1,1,1,1,1
31,4010,43.93305,-70.91671,Brownfield,ME,Maine,Oxford,269.73749999999995,1015.325,69.2625,0.0975,23017,275,2.9488000869751,0.0,0.5347829461097721,8.95413875579834,87.1320114135742,0.22077082097530398,0.209496304392815,0.430267125368118,3,2,2,1,1,1,2
32,4210,44.0849,-70.24922,Auburn,ME,Maine,Androscoggin,269.73749999999995,1015.325,69.2625,0.0975,23001,84,0.0,0.0,2.9582998752594,10.421974182128901,84.464225769043,1.7524230480194098,0.40307739377021795,2.1555004119873,3,2,1,1,1,1,1
33,4259,44.228359999999995,-70.00856,Monmouth,ME,Maine,Kennebec,269.73749999999995,1015.325,69.2625,0.0975,23011,57,1.9373999834060702,0.0,1.8424999713897698,9.14701080322266,84.8094711303711,2.13028311729431,0.133334800601006,2.26361799240112,3,2,1,1,1,1,1
34,4342,44.07942,-69.73938000000001,Dresden,ME,Maine,Lincoln,269.73749999999995,1015.325,69.2625,0.0975,23015,38,0.0,0.0,0.0,0.0,0.0,0.0,0.0,0.0,0,0,0,0,0,0,0
35,4354,44.396029999999996,-69.42707,Palermo,ME,Maine,Waldo,266.0575,1011.095,80.585,0.02,23027,80,0.9884999394416809,0.0,1.0481823682785,8.771397590637209,89.17410278320308,0.0,0.0178175307810307,0.0178175307810307,3,3,1,1,1,1,1
36,4401,44.84923,-68.84479,Bangor,ME,Maine,Penobscot,266.0575,1011.095,80.585,0.02,23019,74,13.8683996200562,0.0,0.87205982208252,8.68917846679688,75.7313003540039,0.7136704921722409,0.12539079785347,0.839061319828033,3,2,1,2,1,1,1
37,4406,45.23454,-69.56989,Abbot,ME,Maine,Piscataquis,266.0575,1011.095,80.585,0.02,23021,336,9.0,0.0,0.0,11.334117889404302,79.05706787109379,0.6088144183158871,0.0,0.6088144183158871,3,2,2,1,1,1,2
38,4408,44.99135,-68.23071999999999,Aurora,ME,Maine,Hancock,266.0575,1011.095,80.585,0.02,23009,15,0.0,0.0,0.0,0.0,0.0,0.0,0.0049019311554729895,0.0049019311554729895,0,0,0,0,0,0,0
39,4471,45.89108,-67.84714,Orient,ME,Maine,Aroostook,263.44,1011.92,79.365,0.037500000000000006,23003,279,0.0,0.0,0.0,14.4218339920044,79.10765075683591,6.470515251159671,0.0,6.470515251159671,3,2,2,1,1,1,2
40,4478,45.86407,-69.87680999999999,Rockwood,ME,Maine,Somerset,263.44,1011.92,79.365,0.037500000000000006,23025,360,1.0,0.0,0.00619999971240759,9.95559787750244,88.30762481689449,0.7305773496627809,0.0,0.7305773496627809,3,2,2,1,1,1,2
41,4547,43.99388,-69.32779000000001,Friendship,ME,Maine,Knox,269.73749999999995,1015.325,69.2625,0.0975,23013,0,0.0,0.0,0.0,0.0,0.0,0.0,0.0,0.0,0,0,0,0,0,0,0
42,5001,43.67222,-72.38133,White River Junction,VT,Vermont,Windsor,269.73749999999995,1015.325,69.2625,0.0975,50027,449,0.0,0.0,0.5379629731178279,8.89929580688477,90.47430419921879,0.0,0.0884369984269142,0.0884369984269142,2,2,3,1,1,1,3
43,5033,44.00888,-72.15799,Bradford,VT,Vermont,Orange,269.73749999999995,1015.325,69.2625,0.0975,50017,421,2.9764997959137003,0.0,0.900035917758942,10.9416055679321,83.5946426391602,1.56484735012054,0.0223691891878843,1.58721649646759,2,2,3,1,1,1,3
44,5042,44.22756,-72.09962,East Ryegate,VT,Vermont,Caledonia,266.0575,1011.095,80.585,0.02,50005,280,0.0,0.0,1.1550999879836998,14.8738765716553,79.4233322143555,4.47392845153809,0.073762871325016,4.547691345214839,2,2,3,1,1,1,3
45,5101,43.17899,-72.49454,Bellows Falls,VT,Vermont,Windham,269.73749999999995,1015.325,69.2625,0.0975,50025,388,0.0,0.0,0.5691787600517271,8.89629077911377,90.4438095092773,0.0,0.0907211899757385,0.0907211899757385,3,2,3,1,1,1,3
46,5152,43.25358,-72.9153,Peru,VT,Vermont,Bennington,269.73749999999995,1015.325,69.2625,0.0975,50003,739,0.0,0.0,0.223690882325172,8.93421649932861,90.8293838500977,0.0,0.0127090997993946,0.0127090997993946,3,3,1,1,1,1,1
47,5401,44.47629000000001,-73.20997,Burlington,VT,Vermont,Chittenden,266.29,1015.5625,78.6725,0.06000000000000001,50007,154,0.0,0.0,1.28296554088593,8.81912994384766,89.6593704223633,1.4901161193847703e-08,0.23853440582752203,0.23853442072868303,2,2,3,1,1,1,3
48,5440,44.95953,-73.27951999999998,Alburgh,VT,Vermont,Grand Isle,266.29,1015.5625,78.6725,0.06000000000000001,50013,27,60.405799865722706,0.0,1.16470003128052,2.83137655258179,17.1981563568115,18.249700546264602,0.15026590228080702,18.399967193603498,7,7,7,7,7,7,7
49,5442,44.75855,-72.67678000000002,Belvidere Center,VT,Vermont,Lamoille,266.0575,1011.095,80.585,0.02,50015,247,0.0,0.0,0.8767134547233578,8.87415790557861,90.21874237060551,0.0,0.0303865000605583,0.0303865000605583,2,2,3,1,1,1,3
50,5443,44.13347,-73.03668,Bristol,VT,Vermont,Addison,266.29,1015.5625,78.6725,0.06000000000000001,50001,132,0.0,0.0,1.05509996414185,9.07944297790527,82.68316650390629,7.10111379623413,0.0811769813299179,7.18229055404663,1,1,1,1,1,1,1
51,5701,43.62458,-72.90981,Rutland,VT,Vermont,Rutland,269.73749999999995,1015.325,69.2625,0.0975,50021,237,0.0,0.0,1.09266304969788,9.20728874206543,89.40322875976558,0.23788896203041102,0.0589300617575645,0.296819031238556,2,2,3,1,1,1,3
52,5820,44.73871,-72.34482,Albany,VT,Vermont,Orleans,266.0575,1011.095,80.585,0.02,50019,317,0.0,0.0,0.8937473297119141,8.86550998687744,90.13088989257808,7.45058059692383e-09,0.109852701425552,0.109852708876133,3,2,2,1,1,1,2
53,6001,41.7907,-72.85385,Avon,CT,Connecticut,Hartford,271.45750000000004,1016.4925,68.815,0.125,9003,34,0.0,0.0,76.0365524291992,2.13103199005127,21.6650657653809,0.0,0.167349696159363,0.167349696159363,3,2,1,1,1,1,1
54,6018,42.02648,-73.30872,Canaan,CT,Connecticut,Litchfield,271.985,1015.955,70.4275,0.14,9005,367,0.0,0.0,2.07261323928833,8.730809211730959,88.7613906860352,2.98023223876953e-08,0.435186713933945,0.43518674373626703,3,3,1,1,1,1,1
55,6029,41.91503,-72.44946999999998,Ellington,CT,Connecticut,Tolland,270.80499999999995,1016.1225,72.215,0.125,9013,165,0.0,0.0,4.07804203033447,8.54861164093018,86.90908813476558,2.98023223876953e-08,0.46425798535347,0.46425801515579207,3,3,1,1,1,1,1
56,6249,41.63128,-72.2402,Lebanon,CT,Connecticut,New London,271.45750000000004,1016.4925,68.815,0.125,9011,57,1.0,0.0,10.886800765991199,7.941410064697269,78.79974365234379,1.35418081283569,0.017864890396595,1.37204575538635,3,3,1,1,1,1,1
57,6401,41.34424,-73.0689,Ansonia,CT,Connecticut,New Haven,272.74749999999995,1016.8375,70.14250000000001,0.14,9009,13,0.0,0.0,0.0,0.0,0.0,0.0,0.0020030930172652,0.0020030930172652,0,0,0,0,0,0,0
58,6468,41.33786,-73.22506,Monroe,CT,Connecticut,Fairfield,273.0875,1016.075,68.92750000000001,0.14750000000000002,9001,85,48.3214988708496,0.0,17.0431518554688,3.28196024894714,31.216751098632802,0.12166189402341801,0.0149760600179434,0.13663795590400699,3,3,1,2,1,1,1
59,7002,40.66464000000001,-74.10866999999998,Bayonne,NJ,New Jersey,Hudson,274.0175,1017.425,68.3475,0.15000000000000002,34017,6,0.0,0.0,0.0,0.0,0.0,0.0,0.0006684560212306679,0.0006684560212306679,0,0,0,0,0,0,0
60,7005,40.92947,-74.421,Boonton,NJ,New Jersey,Morris,273.39250000000004,1015.7975,70.15,0.14750000000000002,34027,173,0.0,0.0,8.87157726287842,8.1459903717041,82.8159103393555,0.0,0.166521996259689,0.166521996259689,3,2,1,1,1,1,1
61,7010,40.822109999999995,-73.98794000000002,Cliffside Park,NJ,New Jersey,Bergen,273.9575,1017.45,67.8775,0.14750000000000002,34003,23,1.6466999053955098,0.0,88.6115036010742,2.40278506278992,5.93833875656128,1.02961480617523,0.371057897806168,1.40067267417908,2,1,1,2,1,1,1
62,7011,40.878479999999996,-74.14478000000003,Clifton,NJ,New Jersey,Passaic,273.39250000000004,1015.7975,70.15,0.14750000000000002,34031,65,2.7473998069763197,0.0,40.44907760620121,4.88428068161011,49.655818939209006,0.0,2.26342296600342,2.26342296600342,2,1,1,2,1,1,1
63,7016,40.65643,-74.30357,Cranford,NJ,New Jersey,Union,273.8575,1017.0775,67.77250000000001,0.15000000000000002,34039,21,0.840999960899353,0.0,61.1672973632813,9.33841609954834,26.096544265747102,2.33179450035095,0.224947705864906,2.5567421913147004,2,1,1,2,1,1,1
64,7416,41.11589,-74.59775,Franklin,NJ,New Jersey,Sussex,273.39250000000004,1015.7975,70.15,0.14750000000000002,34037,183,0.0,0.0,8.73972797393799,8.15813827514648,82.9393615722656,1.4901161193847703e-08,0.16277199983596802,0.16277201473712902,2,2,1,1,1,1,1
65,7701,40.36144,-74.07745,Red Bank,NJ,New Jersey,Monmouth,273.805,1017.4075,69.49000000000001,0.155,34025,34,3.35660004615784,0.0,55.11689758300779,2.9556090831756605,30.3145904541016,6.72741985321045,1.52888298034668,8.25630283355713,2,2,1,2,1,1,1
66,7820,40.92708,-74.81142,Allamuchy,NJ,New Jersey,Warren,273.39250000000004,1015.7975,70.15,0.14750000000000002,34041,170,0.0,0.0,2.79850482940674,8.579677581787111,87.2249221801758,0.0,1.3968950510025,1.3968950510025,3,2,1,1,1,1,1
67,7830,40.72104,-74.80747,Califon,NJ,New Jersey,Hunterdon,273.805,1017.4075,69.49000000000001,0.155,34019,106,0.0,0.0,4.04360008239746,7.75649642944336,77.6022262573242,9.500101089477539,1.0975760221481299,10.597677230835,3,2,1,1,1,1,1
68,8001,39.55073,-75.34976999999998,Alloway,NJ,New Jersey,Salem,274.0775,1018.5825,70.28750000000001,0.15,34033,32,0.0,0.0,23.083801269531303,2.3721370697021498,18.658006668090803,43.2690544128418,12.616999626159698,55.8860549926758,3,2,1,1,1,1,1
69,8002,39.931329999999996,-75.02539,Cherry Hill,NJ,New Jersey,Camden,274.0775,1018.5825,70.28750000000001,0.15,34007,49,0.0,0.0,14.635499954223599,7.08197450637817,72.4886245727539,2.27767491340637,3.51622605323792,5.79390096664429,3,3,1,1,1,1,1
70,8005,39.763659999999994,-74.3153,Barnegat,NJ,New Jersey,Ocean,274.0775,1018.5825,70.28750000000001,0.15,34029,12,17.997200012207,1.0,36.237800598144496,4.848193168640139,39.205051422119105,0.473830014467239,0.23792490363121,0.71175491809845,2,2,1,2,1,1,1
71,8010,40.053329999999995,-74.91419,Beverly,NJ,New Jersey,Burlington,274.0775,1018.5825,70.28750000000001,0.15,34005,35,0.0,0.0,0.5512903332710269,12.8077840805054,83.7449569702148,2.63035821914673,0.265609890222549,2.89596819877625,3,3,1,1,1,1,1
72,8014,39.81795,-75.35809,Bridgeport,NJ,New Jersey,Gloucester,274.0775,1018.5825,70.28750000000001,0.15,34015,42,0.0,0.0,4.234599590301509,7.07770013809204,70.1030731201172,12.938796043396001,5.645831108093259,18.5846271514893,3,2,1,1,1,1,1
73,8037,39.63800000000001,-74.77275,Hammonton,NJ,New Jersey,Atlantic,274.0775,1018.5825,70.28750000000001,0.15,34001,23,1.7181998491287198,0.0,20.3022994995117,5.438714981079099,59.2532768249512,8.97301864624023,4.314489841461181,13.2875089645386,3,2,1,1,1,1,1
74,8202,39.10018,-74.73873,Avalon,NJ,New Jersey,Cape May,274.0775,1018.5825,70.28750000000001,0.15,34009,2,0.0,0.0,0.0,0.0,0.0,0.0,0.100188903510571,0.100188903510571,0,0,0,0,0,0,0
75,8512,40.32022,-74.52660999999998,Cranbury,NJ,New Jersey,Mercer,273.805,1017.4075,69.49000000000001,0.155,34021,31,0.0,0.0,1.24580001831055,4.35614013671875,39.538787841796896,40.9343032836914,13.924969673156701,54.8592720031738,3,2,1,1,1,1,1
76,10001,40.75065,-73.99718,New York,NY,New York,New York,273.7775,1017.2825,66.38,0.1125,36061,16,0.0,0.0,96.32174682617192,0.39085865020752003,2.0590009689331104,0.10838651657104499,1.12000703811646,1.2283935546875,3,2,1,1,1,1,1
77,10301,40.62846,-74.0962,Staten Island,NY,New York,Richmond,273.8575,1017.0775,67.77250000000001,0.15000000000000002,36085,15,0.0,0.0,0.0,0.0,0.0,0.0,0.149570196866989,0.149570196866989,0,0,0,0,0,0,0
78,10451,40.82077,-73.92387,Bronx,NY,New York,Bronx,273.9575,1017.45,67.8775,0.14750000000000002,36005,18,0.0,0.0,97.3058853149414,4.76837158203125e-06,0.0,0.0,2.69410991668701,2.69410991668701,3,2,1,1,1,1,1
79,10501,41.29448,-73.76075,Amawalk,NY,New York,Westchester,273.055,1016.655,70.35,0.135,36119,151,0.0,0.0,46.8416748046875,4.72836494445801,48.070735931396506,0.0,0.35922449827194197,0.35922449827194197,3,2,1,1,1,1,1
80,10509,41.41174,-73.59437,Brewster,NY,New York,Putnam,273.055,1016.655,70.35,0.135,36079,185,0.0,0.0,11.666034698486301,7.89688348770142,80.283317565918,0.0,0.153764203190804,0.153764203190804,2,2,1,1,1,1,1
81,10901,41.13876,-74.11615,Suffern,NY,New York,Rockland,273.39250000000004,1015.7975,70.15,0.14750000000000002,36087,59,10.066999435424801,0.0,30.1824436187744,5.32152652740479,54.10107421875,0.0,0.32795619964599604,0.32795619964599604,2,2,1,1,1,1,1
82,11001,40.72353,-73.70456999999998,Floral Park,NY,New York,Nassau,274.2525,1017.13,70.66,0.14500000000000002,36059,22,0.0,0.0,0.0,0.0,0.0,0.0,9.96706771850586,9.96706771850586,0,0,0,0,0,0,0
83,11004,40.74628,-73.71148000000002,Glen Oaks,NY,New York,Queens,274.2525,1017.13,70.66,0.14500000000000002,36081,1,0.0,0.0,0.0,0.0,0.0,0.0,0.10678970068693198,0.10678970068693198,0,0,0,0,0,0,0
84,11201,40.69463,-73.98971999999998,Brooklyn,NY,New York,Kings,273.7775,1017.2825,66.38,0.1125,36047,1,0.0,0.0,0.0,0.0,0.0,0.0,1.6022269725799598,1.6022269725799598,0,0,0,0,0,0,0
85,12007,42.45616,-73.92765,Alcove,NY,New York,Albany,270.80499999999995,1016.1225,72.215,0.125,36001,258,0.0,0.0,0.692410409450531,8.88399791717529,90.3188018798828,0.0,0.104789599776268,0.104789599776268,1,1,1,2,1,1,1
86,12008,42.85301,-73.90799,Alplaus,NY,New York,Schenectady,270.80499999999995,1016.1225,72.215,0.125,36093,185,0.0,0.0,2.7761998176574703,8.57675361633301,86.98275756835942,1.48417067527771,0.180118694901466,1.6642893552780198,1,1,1,1,1,1,1
87,12010,42.93797,-74.17385999999998,Amsterdam,NY,New York,Montgomery,270.80499999999995,1016.1225,72.215,0.125,36057,243,0.0,0.0,0.787884950637817,8.87287330627441,90.2057266235352,0.0,0.133515000343323,0.133515000343323,2,2,1,1,1,1,1
88,12015,42.28262,-73.8272,Athens,NY,New York,Greene,271.985,1015.955,70.4275,0.14,36039,665,0.0,0.0,0.34970000386238104,7.4471759796142605,81.2912979125977,10.8962755203247,0.015550940297543997,10.911826133728,2,2,1,1,1,1,1
89,12017,42.32118,-73.46216,Austerlitz,NY,New York,Columbia,270.80499999999995,1016.1225,72.215,0.125,36021,231,0.0,0.0,0.301691621541977,8.8934268951416,90.4146728515625,2.98023223876953e-08,0.390208393335342,0.39020842313766496,2,2,1,1,1,1,1
90,12018,42.62952,-73.52591,Averill Park,NY,New York,Rensselaer,270.80499999999995,1016.1225,72.215,0.125,36083,483,0.0,0.0,0.7188023328781129,8.89026260375977,90.38253784179692,0.0,0.008397652767598629,0.008397652767598629,3,3,2,1,1,1,2
91,12019,42.93075,-73.88635,Ballston Lake,NY,New York,Saratoga,270.80499999999995,1016.1225,72.215,0.125,36091,90,1.9510999917984,0.0,4.9601001739502,7.70742559432983,76.1747741699219,8.927793502807619,0.278807103633881,9.20660018920898,2,1,1,1,1,1,1
92,12025,43.0833,-74.13600000000002,Broadalbin,NY,New York,Fulton,269.9725,1015.9375,78.4025,0.105,36035,262,0.0,0.0,2.23420000076294,6.41329145431519,54.0284233093262,36.889499664306605,0.43458569049835205,37.3240852355957,1,1,1,1,1,1,1
93,12031,42.76477,-74.4569,Carlisle,NY,New York,Schoharie,269.9725,1015.9375,78.4025,0.105,36095,383,0.0,0.0,0.5773000121116639,8.55696678161621,88.27481079101558,2.5009562969207795,0.0899658426642418,2.5909221172332795,2,1,1,1,1,1,1
94,12064,42.61434000000001,-74.65729,East Worcester,NY,New York,Otsego,269.9725,1015.9375,78.4025,0.105,36077,451,0.0,0.0,0.8305000066757199,8.23367595672607,85.4490203857422,5.3953995704650906,0.0914037972688675,5.486803531646731,2,1,1,1,1,1,1
95,12108,43.57407,-74.44934,Lake Pleasant,NY,New York,Hamilton,269.9725,1015.9375,78.4025,0.105,36041,752,0.0,0.0,0.0901999995112419,9.25421619415283,84.1396179199219,6.51570844650269,0.00025770760839805,6.51596593856812,3,2,2,1,1,1,2
96,12167,42.420759999999994,-74.58407,Stamford,NY,New York,Delaware,269.9725,1015.9375,78.4025,0.105,36025,577,1.0,0.0,0.48579999804496793,8.21514129638672,85.8120880126953,4.4781608581542995,0.00880935322493315,4.4869704246521,2,2,1,1,1,1,1
97,12401,41.93558,-74.05278,Kingston,NY,New York,Ulster,271.985,1015.955,70.4275,0.14,36111,242,0.0,0.0,1.48660004138947,8.11206722259521,83.4574508666992,4.69524383544922,2.2486379146575897,6.94388198852539,1,1,1,1,1,1,1
98,12501,41.85964,-73.55856999999997,Amenia,NY,New York,Dutchess,271.985,1015.955,70.4275,0.14,36027,213,0.0,0.0,3.99268937110901,8.5734395980835,87.16156005859379,0.0,0.272310614585876,0.272310614585876,2,2,1,1,1,1,1
99,12901,44.70382,-73.47381999999998,Plattsburgh,NY,New York,Clinton,266.29,1015.5625,78.6725,0.06000000000000001,36019,250,0.0,0.0,0.9408999681472779,8.7849178314209,89.58495330810551,0.533940613269806,0.15528869628906303,0.689229309558868,3,3,1,1,1,1,1
100,12922,44.28808,-74.71793000000002,Childwold,NY,New York,St. Lawrence,270.2325,1015.06,78.1,0.08249999999999999,36089,277,0.0,0.0,0.15008410811424303,8.941873550415039,90.9072265625,0.0,0.000815886480268091,0.000815886480268091,3,3,1,1,1,1,1
101,13020,42.81647,-76.07455,Apulia Station,NY,New York,Onondaga,269.9725,1015.9375,78.4025,0.105,36067,274,0.0,0.0,1.43959999084473,7.15076446533203,72.06370544433591,19.048246383667,0.297684013843536,19.3459300994873,1,1,1,1,1,1,1
102,13021,42.923790000000004,-76.55886,Auburn,NY,New York,Cayuga,269.9725,1015.9375,78.4025,0.105,36011,212,16.8299999237061,0.0,2.41269993782043,4.5938825607299805,42.4227409362793,33.631393432617195,0.109283901751041,33.740676879882805,1,1,1,1,1,1,1
103,13028,43.2969,-75.93471,Bernhards Bay,NY,New York,Oswego,269.9725,1015.9375,78.4025,0.105,36075,123,0.0,0.0,1.49779999256134,8.15091228485107,85.051513671875,5.10478782653809,0.194986194372177,5.299774169921879,2,1,1,1,1,1,1
104,13030,43.15504,-75.96070999999998,Bridgeport,NY,New York,Madison,269.9725,1015.9375,78.4025,0.105,36053,425,0.0,0.0,0.6496999859809879,6.44445610046387,68.7757186889648,24.077650070190398,0.0524745807051659,24.1301250457764,2,1,1,1,1,1,1
105,13040,42.56139,-75.93225,Cincinnatus,NY,New York,Cortland,269.9725,1015.9375,78.4025,0.105,36023,474,0.0,0.0,1.4122998714447002,6.355792999267581,60.009342193603494,32.181488037109396,0.0410777702927589,32.222564697265604,2,1,1,1,1,1,1
106,13053,42.47462,-76.26598,Dryden,NY,New York,Tompkins,269.9725,1015.9375,78.4025,0.105,36109,401,0.0,0.0,0.6549999713897711,8.14143466949463,85.2729721069336,5.91610860824585,0.01448495965451,5.9305934906005895,2,2,1,1,1,1,1
107,13054,43.17083,-75.67213000000002,Durhamville,NY,New York,Oneida,269.9725,1015.9375,78.4025,0.105,36065,161,0.0,0.0,13.6690998077393,6.6942844390869105,66.1500091552734,13.323404312133801,0.163202196359634,13.4866065979004,1,1,1,1,1,1,1
108,13124,42.64605,-75.81796,North Pitcher,NY,New York,Chenango,269.9725,1015.9375,78.4025,0.105,36017,443,0.0,0.0,0.7842999696731571,6.983600616455081,74.3058700561523,17.8365516662598,0.0896783322095871,17.9262294769287,2,1,1,1,1,1,1
109,13143,43.233259999999994,-76.71529,Red Creek,NY,New York,Wayne,269.9725,1015.9375,78.4025,0.105,36117,0,100.0,0.0,0.0,0.0,0.0,0.0,0.0,0.0,7,7,7,7,7,7,7
110,13148,42.91464000000001,-76.7847,Seneca Falls,NY,New York,Seneca,269.9725,1015.9375,78.4025,0.105,36099,226,0.0,0.0,0.788899958133698,2.71118783950806,17.4925422668457,78.8639755249023,0.143396005034447,79.0073699951172,1,1,1,1,1,1,1
111,13305,43.89223,-75.42124,Beaver Falls,NY,New York,Lewis,270.2325,1015.06,78.1,0.08249999999999999,36049,250,0.0,0.0,1.29379999637604,6.68253564834595,69.7457733154297,22.2243156433105,0.0535755082964897,22.277891159057603,2,2,1,1,1,1,1
112,13324,43.326209999999996,-74.95408,Cold Brook,NY,New York,Herkimer,269.9725,1015.9375,78.4025,0.105,36043,645,0.0,0.0,0.20239999890327498,13.8477725982666,79.8600997924805,6.08776044845581,0.00196704594418406,6.089727401733401,3,3,1,1,1,1,1
113,13601,43.968379999999996,-75.90673000000002,Watertown,NY,New York,Jefferson,270.2325,1015.06,78.1,0.08249999999999999,36045,114,0.0,0.0,0.9685999751091,7.61911535263062,75.1403274536133,16.2015132904053,0.0704435631632805,16.2719573974609,1,1,1,1,1,1,1
114,13732,42.044129999999996,-76.168,Apalachin,NY,New York,Tioga,269.9725,1015.9375,78.4025,0.105,36107,316,0.0,0.0,0.8518999814987179,6.8650627136230495,67.5557098388672,24.392898559570302,0.33442848920822105,24.7273273468018,2,1,1,1,1,1,1
115,13744,42.23865,-75.90912,Castle Creek,NY,New York,Broome,269.9725,1015.9375,78.4025,0.105,36007,402,0.0,0.0,2.7335000038147004,7.8375039100647,79.5134506225586,9.88804912567139,0.027496350929141003,9.91554546356201,2,1,1,1,1,1,1
116,14001,43.032959999999996,-78.51205,Akron,NY,New York,Erie,271.1175,1015.855,75.9225,0.095,36029,359,0.0,0.0,1.86240005493164,7.9761447906494105,82.0439758300781,7.96652555465698,0.150953903794289,8.11747932434082,2,2,1,1,1,1,1
117,14005,42.916940000000004,-78.2503,Alexander,NY,New York,Genesee,271.1175,1015.855,75.9225,0.095,36037,293,0.0,0.0,0.8041000366210941,6.75789070129395,65.4636688232422,25.569274902343803,1.4050660133361799,26.974340438842802,1,1,1,1,1,1,1
118,14008,43.31174,-78.62669,Appleton,NY,New York,Niagara,271.1175,1015.855,75.9225,0.095,36063,0,17.6786003112793,0.0,1.5460000038147,3.82819509506226,33.972946166992195,41.8772621154785,1.0969979763031,42.9742584228516,2,2,1,3,1,1,1
119,14009,42.57462,-78.39319,Arcade,NY,New York,Wyoming,271.1175,1015.855,75.9225,0.095,36121,542,0.0,0.0,0.633399963378906,8.65039920806885,88.5362014770508,1.7222583293914802,0.45774099230766296,2.17999935150146,2,2,1,1,1,1,1
120,14041,42.40358,-78.97358,Dayton,NY,New York,Cattaraugus,271.1175,1015.855,75.9225,0.095,36009,528,0.0,0.0,0.6190563440322879,8.8987922668457,90.46920776367192,0.0,0.0129436403512955,0.0129436403512955,2,2,1,1,1,1,1
121,14048,42.48052,-79.31161,Dunkirk,NY,New York,Chautauqua,271.1175,1015.855,75.9225,0.095,36013,456,0.0,0.0,0.91919994354248,8.78642749786377,89.5970230102539,0.527586340904236,0.16976280510425598,0.69734913110733,2,2,1,1,1,1,1
122,14414,42.89349,-77.73514,Avon,NY,New York,Livingston,271.15500000000003,1015.9375,78.5625,0.095,36051,359,0.0,0.0,0.986999928951263,6.07736349105835,64.93087768554689,27.5363883972168,0.46837130188942,28.0047588348389,1,1,1,1,1,1,1
123,14415,42.75548,-77.01708,Bellona,NY,New York,Yates,271.15500000000003,1015.9375,78.5625,0.095,36123,292,0.0,0.0,0.9041999578475949,6.62313604354858,65.6328506469727,26.4190731048584,0.42074099183082597,26.8398132324219,1,1,1,2,1,1,1
124,14420,43.211999999999996,-77.93455,Brockport,NY,New York,Monroe,271.15500000000003,1015.9375,78.5625,0.095,36055,0,100.0,0.0,0.0,0.0,0.0,0.0,0.0,0.0,7,7,7,7,7,7,7
125,14424,42.84815,-77.30818000000002,Canandaigua,NY,New York,Ontario,271.15500000000003,1015.9375,78.5625,0.095,36069,274,0.0,0.0,0.9055999517440799,7.26244878768921,74.2780456542969,17.302181243896502,0.25172421336174,17.5539054870605,1,1,1,1,1,1,1
126,14529,42.539970000000004,-77.63825,Perkinsville,NY,New York,Steuben,271.15500000000003,1015.9375,78.5625,0.095,36101,499,0.0,0.0,0.786199986934662,6.68333387374878,63.9160079956055,28.152400970459,0.46205770969390897,28.6144580841064,2,1,1,1,1,1,1
127,14707,42.07738,-78.0605,Allentown,NY,New York,Allegany,271.1175,1015.855,75.9225,0.095,36003,579,0.0,0.0,4.06799983978271,7.349797248840329,74.9291076660156,13.0138807296753,0.6392148733139039,13.653095245361301,2,1,1,1,1,1,1
128,14805,42.35884,-76.72417,Alpine,NY,New York,Schuyler,269.9725,1015.9375,78.4025,0.105,36097,286,0.0,0.0,0.8188999891281129,8.081606864929201,81.6587295532227,9.345376968383789,0.0953866466879845,9.44076347351074,2,1,1,1,1,1,1
129,14814,42.15003,-76.95274,Big Flats,NY,New York,Chemung,269.9725,1015.9375,78.4025,0.105,36015,434,0.0,0.0,1.23539996147156,7.64141750335693,80.8573226928711,9.70046329498291,0.565396428108215,10.265859603881802,2,1,1,1,1,1,1
130,15001,40.59209,-80.31976,Aliquippa,PA,Pennsylvania,Beaver,272.41,1017.055,77.96249999999998,0.1125,42007,322,0.0,0.0,17.8358001708984,7.12236881256104,72.9715347290039,1.91847038269043,0.151825696229935,2.0702960491180398,2,2,1,1,1,1,1
131,15006,40.63357,-79.87680999999998,Bairdford,PA,Pennsylvania,Allegheny,272.41,1017.055,77.96249999999998,0.1125,42003,283,1.5224999189376798,0.0,85.8812942504883,1.0212867259979201,10.1842613220215,1.3870347738266,0.00362295098602772,1.3906577825546298,3,2,1,1,1,1,1
132,15012,40.15883,-79.81218,Belle Vernon,PA,Pennsylvania,Westmoreland,272.41,1017.055,77.96249999999998,0.1125,42129,369,0.0,0.0,2.4464998245239302,8.67075824737549,88.04592895507808,0.733472168445587,0.10334060341119802,0.8368127942085269,3,2,1,1,1,1,1
133,15401,39.90108,-79.74724,Uniontown,PA,Pennsylvania,Fayette,272.41,1017.055,77.96249999999998,0.1125,42051,630,0.0,0.0,0.469917923212051,8.91267108917236,90.6103286743164,4.65661287307739e-10,0.00708208000287414,0.007082080468535421,2,2,1,1,1,1,1
134,15521,40.19912,-78.635,Alum Bank,PA,Pennsylvania,Bedford,272.41,1017.055,77.96249999999998,0.1125,42009,403,0.0,0.0,0.532799959182739,8.64786911010742,88.8926239013672,1.9027224779129,0.0239846203476191,1.92670714855194,2,2,1,1,1,1,1
135,15673,40.5938,-79.5563,North Apollo,PA,Pennsylvania,Armstrong,272.41,1017.055,77.96249999999998,0.1125,42005,374,0.0,0.0,0.950800001621246,8.74247646331787,88.6599502563477,1.53726553916931,0.10950779914856,1.6467733383178702,3,2,1,1,1,1,1
136,15681,40.50095,-79.43852,Saltsburg,PA,Pennsylvania,Indiana,272.41,1017.055,77.96249999999998,0.1125,42063,457,2.0,0.0,0.9494000077247621,8.30693817138672,84.877082824707,3.7197575569152797,0.146821603178978,3.8665790557861297,3,2,1,1,1,1,1
137,15714,40.64535,-78.82308,Northern Cambria,PA,Pennsylvania,Cambria,272.41,1017.055,77.96249999999998,0.1125,42021,606,0.0,0.0,2.66129994392395,6.1493234634399405,63.038700103759794,28.1287689208984,0.0219079498201609,28.150676727294897,3,2,1,1,1,1,1
138,15721,40.81462,-78.79247,Burnside,PA,Pennsylvania,Clearfield,272.41,1017.055,77.96249999999998,0.1125,42033,445,0.0,0.0,0.592099964618683,8.58037757873535,88.09634399414058,2.72345924377441,0.00771924899891019,2.7311785221099902,2,2,1,1,1,1,1
139,15821,41.35537,-78.36769,Benezett,PA,Pennsylvania,Elk,270.915,1016.6275,77.78750000000002,0.1375,42047,596,0.0,0.0,0.44419997930526706,8.828451156616211,90.0814895629883,0.6393131613731379,0.0065461369231343295,0.6458593010902399,2,2,1,1,1,1,1
140,15832,41.35637,-78.19169000000002,Driftwood,PA,Pennsylvania,Cameron,270.915,1016.6275,77.78750000000002,0.1375,42023,556,0.0,0.0,0.14739999175071697,8.94219207763672,90.91040802001949,0.0,0.0,0.0,2,2,1,1,1,1,1
141,16001,40.9095,-79.9438,Butler,PA,Pennsylvania,Butler,272.41,1017.055,77.96249999999998,0.1125,42019,367,0.0,0.0,2.5636999607086204,6.9904079437255895,71.05662536621091,19.1567916870117,0.23247590661048897,19.3892669677734,3,2,1,1,1,1,1
142,16028,40.95792,-79.63701999999998,East Brady,PA,Pennsylvania,Clarion,272.41,1017.055,77.96249999999998,0.1125,42031,432,0.0,0.0,1.9571000337600701,2.5083255767822297,27.775815963745103,67.7252349853516,0.0335220508277416,67.75875854492189,3,2,1,1,1,1,1
143,16101,40.98532,-80.28716,New Castle,PA,Pennsylvania,Lawrence,272.41,1017.055,77.96249999999998,0.1125,42073,361,0.0,0.0,18.383499145507802,7.24676513671875,73.5638961791992,0.7688505053520199,0.0369888916611671,0.8058394193649291,2,2,1,1,1,1,1
144,16110,41.50609,-80.3849,Adamsville,PA,Pennsylvania,Crawford,270.915,1016.6275,77.78750000000002,0.1375,42039,423,0.0,0.0,1.65579998493195,8.60672283172607,87.6251220703125,2.0361390113830597,0.0762157365679741,2.11235475540161,2,2,1,1,1,1,1
145,16217,41.33655,-79.18477,Cooksburg,PA,Pennsylvania,Forest,270.915,1016.6275,77.78750000000002,0.1375,42053,506,0.0,0.0,0.178979739546776,8.93869876861572,90.8749008178711,0.0,0.007420246023684741,0.007420246023684741,2,2,1,1,1,1,1
146,16301,41.45555,-79.6353,Oil City,PA,Pennsylvania,Venango,270.915,1016.6275,77.78750000000002,0.1375,42121,436,0.0,0.0,0.7493000030517579,8.627749443054201,88.6936569213867,1.9137586355209397,0.0155352000147104,1.9292938709259,2,2,1,1,1,1,1
147,16333,41.70345,-78.92856,Ludlow,PA,Pennsylvania,McKean,,,,,42083,653,0.0,0.0,0.112516202032566,8.94418239593506,90.9307174682617,0.0,0.0125837996602058,0.0125837996602058,2,2,1,1,1,1,1
148,16601,40.555659999999996,-78.37018,Altoona,PA,Pennsylvania,Blair,272.41,1017.055,77.96249999999998,0.1125,42013,340,0.0,0.0,0.8944000005722049,6.367690563201901,72.8134307861328,19.7180767059326,0.20640179514884902,19.9244785308838,2,1,1,1,1,1,1
149,16611,40.5674,-78.10768,Alexandria,PA,Pennsylvania,Huntingdon,272.41,1017.055,77.96249999999998,0.1125,42061,350,0.0,0.0,0.635356962680817,8.89485454559326,90.4291458129883,0.0,0.040642999112606,0.040642999112606,2,2,1,1,1,1,1
150,16677,40.811809999999994,-78.24365999999998,Sandy Ridge,PA,Pennsylvania,Centre,272.41,1017.055,77.96249999999998,0.1125,42027,317,0.0,0.0,3.40399980545044,5.75285291671753,60.0811653137207,30.636411666870103,0.125569701194763,30.7619819641113,2,1,1,1,1,1,1
151,16720,41.5841,-78.03707,Austin,PA,Pennsylvania,Potter,271.1175,1015.855,75.9225,0.095,42105,716,0.0,0.0,0.0753884091973305,8.94858169555664,90.9754180908203,0.0,0.0006115874275565151,0.0006115874275565151,2,2,1,1,1,1,1
152,16914,41.86377,-76.78241,Columbia Cross Roads,PA,Pennsylvania,Bradford,269.9725,1015.9375,78.4025,0.105,42015,356,0.0,0.0,0.8707154393196109,8.87540054321289,90.2313995361328,1.86264514923096e-09,0.0224845092743635,0.0224845111370087,2,2,1,1,1,1,1
153,17002,40.50755,-77.83922,Allensville,PA,Pennsylvania,Mifflin,275.27,1018.9625,72.985,0.1375,42087,333,0.0,0.0,0.764899969100952,8.757823944091799,88.8204498291016,1.5065904855728103,0.15023599565029097,1.65682649612427,2,2,1,1,1,1,1
154,17003,40.36394,-76.5649,Annville,PA,Pennsylvania,Lebanon,272.69,1017.8225,73.1,0.11500000000000002,42075,178,0.0,0.0,5.53869962692261,7.56612634658813,75.4377212524414,10.360483169555698,1.09696996212006,11.4574527740479,3,2,1,1,1,1,1
155,17005,40.60285,-76.80968,Berrysburg,PA,Pennsylvania,Dauphin,272.69,1017.8225,73.1,0.11500000000000002,42043,193,0.0,0.0,16.5711994171143,6.6725959777832005,66.81398773193361,9.797689437866211,0.144527301192284,9.942216873168949,1,1,1,1,1,1,1
156,17006,40.28559,-77.54373000000002,Blain,PA,Pennsylvania,Perry,275.27,1018.9625,72.985,0.1375,42099,231,0.0,0.0,1.84379994869232,8.11760425567627,76.623893737793,13.3098669052124,0.104835897684097,13.414702415466301,2,1,1,1,1,1,1
157,17017,40.64332,-76.88259000000002,Dalmatia,PA,Pennsylvania,Northumberland,272.69,1017.8225,73.1,0.11500000000000002,42097,258,0.0,0.0,0.7753999829292301,8.58257484436035,87.03466033935551,3.2250778675079306,0.382286787033081,3.6073646545410196,2,2,1,1,1,1,1
158,17021,40.33957,-77.65933000000003,East Waterford,PA,Pennsylvania,Juniata,275.27,1018.9625,72.985,0.1375,42067,261,0.0,0.0,1.0358469486236601,8.84646701812744,89.9372329711914,0.0,0.18045300245285,0.18045300245285,2,1,1,1,1,1,1
159,17022,40.16632,-76.60866999999998,Elizabethtown,PA,Pennsylvania,Lancaster,275.27,1018.9625,72.985,0.1375,42071,113,0.0,0.0,4.10369968414307,3.66761112213135,28.2659091949463,63.0187835693359,0.943997085094452,63.9627799987793,1,1,1,1,1,1,1
160,17301,39.89062,-76.9803,Abbottstown,PA,Pennsylvania,Adams,275.27,1018.9625,72.985,0.1375,42001,157,0.0,0.0,0.959699988365173,4.07915639877319,33.2195205688477,61.3580131530762,0.383610486984253,61.74162292480471,1,1,1,1,1,1,1
161,17701,41.33749,-76.90231999999997,Williamsport,PA,Pennsylvania,Lycoming,272.69,1017.8225,73.1,0.11500000000000002,42081,256,3.43790006637573,0.0,15.6337995529175,7.64284324645996,70.6538772583008,2.58419275283813,0.0473873987793922,2.63158011436462,2,2,1,1,1,1,1
162,17812,40.74069,-77.22815,Beaver Springs,PA,Pennsylvania,Snyder,272.69,1017.8225,73.1,0.11500000000000002,42109,229,0.0,0.0,1.0862998962402302,8.72482490539551,88.50616455078129,1.3582081794738798,0.32450199127197304,1.6827101707458503,2,2,1,1,1,1,1
163,17821,40.98871,-76.63927,Danville,PA,Pennsylvania,Montour,272.69,1017.8225,73.1,0.11500000000000002,42093,190,0.0,0.0,1.3257999420166,8.53112411499023,87.1882781982422,2.64882111549377,0.305976688861847,2.95479774475098,2,2,1,1,1,1,1
164,17901,40.69364,-76.25520999999998,Pottsville,PA,Pennsylvania,Schuylkill,272.69,1017.8225,73.1,0.11500000000000002,42107,236,0.0,0.0,1.02824974060059,8.831488609313961,89.7850112915039,0.0,0.35525020956993103,0.35525020956993103,2,2,1,1,1,1,1
165,18011,40.47124,-75.64643000000002,Alburtis,PA,Pennsylvania,Lehigh,272.69,1017.8225,73.1,0.11500000000000002,42077,127,0.0,0.0,5.92590427398682,8.40236759185791,85.4223327636719,0.0,0.249395504593849,0.249395504593849,3,2,1,1,1,1,1
166,18013,40.85301,-75.17174,Bangor,PA,Pennsylvania,Northampton,272.69,1017.8225,73.1,0.11500000000000002,42095,122,0.0,0.0,12.257399559021001,7.36183214187622,74.2921142578125,6.00873517990112,0.079918846487999,6.0886540412902805,2,2,1,1,1,1,1
167,18030,40.80223,-75.66404,Bowmanstown,PA,Pennsylvania,Carbon,272.69,1017.8225,73.1,0.11500000000000002,42025,305,0.0,0.0,4.440800189971919,7.32973051071167,76.2411804199219,11.9307870864868,0.0575018487870693,11.988288879394501,2,2,1,1,1,1,1
168,18056,40.4491,-75.54912,Hereford,PA,Pennsylvania,Berks,272.69,1017.8225,73.1,0.11500000000000002,42011,228,0.0,0.0,11.670372009277301,7.9048166275024405,80.3639831542969,3.7252902984619103e-09,0.0608281493186951,0.0608281530439854,3,2,1,1,1,1,1
169,18077,40.56687,-75.2435,Riegelsville,PA,Pennsylvania,Bucks,272.69,1017.8225,73.1,0.11500000000000002,42017,80,0.0,0.0,50.26789855957029,3.6023941040039102,35.103122711181605,10.6217527389526,0.40483221411705,11.0265846252441,2,2,1,1,1,1,1
170,18201,40.948879999999996,-75.95625,Hazleton,PA,Pennsylvania,Luzerne,272.69,1017.8225,73.1,0.11500000000000002,42079,365,0.0,0.0,4.32170009613037,8.44257640838623,85.6093292236328,1.54961514472961,0.0767794325947762,1.62639462947845,2,1,1,1,1,1,1
171,18324,41.15197,-75.00303000000002,Bushkill,PA,Pennsylvania,Pike,272.69,1017.8225,73.1,0.11500000000000002,42103,414,0.0,0.0,2.34711885452271,8.74309349060059,88.8863067626953,0.0,0.0234811305999756,0.0234811305999756,2,2,1,1,1,1,1
172,18403,41.50042,-75.52959,Archbald,PA,Pennsylvania,Lackawanna,272.69,1017.8225,73.1,0.11500000000000002,42069,511,0.0,0.0,1.29520297050476,8.82309246063232,89.6996078491211,0.0,0.18209700286388397,0.18209700286388397,1,1,1,2,1,1,1
173,18413,41.64816,-75.58949,Clifford,PA,Pennsylvania,Susquehanna,272.69,1017.8225,73.1,0.11500000000000002,42115,436,0.0,0.0,0.9302617907524109,8.86931324005127,90.1694869995117,0.0,0.0309381801635027,0.0309381801635027,2,2,1,1,1,1,1
174,19087,40.06116,-75.39986999999998,Wayne,PA,Pennsylvania,Chester,274.0775,1018.5825,70.28750000000001,0.15,42029,118,0.0,0.0,7.37479972839355,8.22587776184082,83.5437774658203,0.589014112949371,0.266531109809875,0.8555452227592472,3,2,1,1,1,1,1
175,19102,39.952870000000004,-75.16549,Philadelphia,PA,Pennsylvania,Philadelphia,274.0775,1018.5825,70.28750000000001,0.15,42101,9,0.0,0.0,98.9143600463867,3.9339065551757796e-06,0.0,0.0,1.0856360197067298,1.0856360197067298,3,2,1,1,1,1,1
176,19701,39.58435,-75.69939000000002,Bear,DE,Delaware,New Castle,274.0775,1018.5825,70.28750000000001,0.15,10003,10,11.983900070190401,0.0,1.53910005092621,4.74076318740845,45.2837791442871,34.455921173095696,1.99653804302216,36.4524574279785,2,2,1,2,1,1,1
177,20105,38.96273,-77.61001999999998,Aldie,VA,Virginia,Loudoun,275.39,1018.99,70.985,0.105,51107,127,0.0,0.0,1.2886998653411899,15.5560913085938,56.894660949707,23.8129234313965,2.44762492179871,26.2605476379395,2,1,1,1,1,1,1
178,20106,38.68699,-78.01175,Amissville,VA,Virginia,Culpeper,275.39,1018.99,70.985,0.105,51047,95,0.0,0.0,0.709499955177307,24.874765396118196,59.3202247619629,14.2539834976196,0.8415256142616271,15.0955095291138,3,2,1,1,1,1,1
179,20109,38.79282,-77.52658000000002,Manassas,VA,Virginia,Prince William,275.39,1018.99,70.985,0.105,51153,116,0.0,0.0,0.38207653164863603,23.421846389770497,66.4745254516602,9.716630935668949,0.00492045423015952,9.721550941467289,3,2,1,1,1,1,1
180,20110,38.74711,-77.48591,Manassas,VA,Virginia,Manassas,275.39,1018.99,70.985,0.105,51683,84,0.0,0.0,2.5130000114440896,24.0187473297119,62.9371452331543,10.4586753845215,0.0724313035607338,10.5311069488525,3,2,1,1,1,1,1
181,20115,38.82155,-77.9001,Marshall,VA,Virginia,Fauquier,275.39,1018.99,70.985,0.105,51061,155,0.0,0.0,2.1868999004364,14.582421302795401,42.7745933532715,39.1273536682129,1.32873094081879,40.456085205078104,3,2,1,1,1,1,1
182,20120,38.85433,-77.47715,Centreville,VA,Virginia,Fairfax,275.39,1018.99,70.985,0.105,51059,84,2.9292998313903795,0.0,21.800600051879897,7.209143161773679,42.7508087158203,25.0957889556885,0.214358597993851,25.3101482391357,3,3,1,1,1,1,1
183,20130,39.02747,-77.9491,Paris,VA,Virginia,Clarke,275.39,1018.99,70.985,0.105,51043,258,0.0,0.0,0.388999998569489,19.851633071899396,62.7089653015137,16.900842666626,0.149558499455452,17.0504016876221,2,2,1,1,1,1,1
184,20601,38.6137,-76.85088,Waldorf,MD,Maryland,Charles,275.5325,1019.04,71.025,0.125,24017,43,23.761798858642603,0.0,1.0875999927520799,8.60983848571777,52.854949951171896,13.2502117156982,0.43560171127319297,13.6858129501343,3,3,1,1,1,1,1
185,20606,38.25952,-76.73699,Abell,MD,Maryland,St. Mary's,275.5325,1019.04,71.025,0.125,24037,23,62.8381004333496,0.0,0.40240001678466797,4.148553848266601,30.9179286956787,1.6490694284439098,0.0439473204314709,1.6930167675018302,7,7,7,7,7,7,7
186,20607,38.67227000000001,-77.02018000000002,Accokeek,MD,Maryland,Prince George's,275.5325,1019.04,71.025,0.125,24033,51,0.0,0.0,2.02489995956421,8.13167572021484,82.99290466308591,6.4794659614563,0.371053695678711,6.85051965713501,3,2,1,1,1,1,1
187,20615,38.42013,-76.54786,Broomes Island,MD,Maryland,Calvert,275.5325,1019.04,71.025,0.125,24009,29,8.89789962768555,0.0,4.68909978866577,20.049505233764602,52.9260177612305,13.329725265502901,0.10775180160999302,13.437477111816401,3,3,1,1,1,1,1
188,20701,39.12627,-76.78423000000002,Annapolis Junction,MD,Maryland,Howard,275.27,1018.9625,72.985,0.1375,24027,117,0.0,0.0,37.341701507568395,4.624963760375981,35.5197525024414,22.3531875610352,0.160393893718719,22.5135822296143,3,2,1,1,1,1,1
189,20711,38.80509,-76.65199,Lothian,MD,Maryland,Anne Arundel,275.5325,1019.04,71.025,0.125,24003,16,28.9631004333496,0.0,7.41280031204224,5.4128522872924805,55.479774475097706,2.5276734828948997,0.203798800706863,2.73147225379944,7,7,7,7,7,7,7
190,21001,39.51073,-76.2006,Aberdeen,MD,Maryland,Harford,275.27,1018.9625,72.985,0.1375,24025,33,43.9651985168457,1.9749000072479201,0.605299949645996,3.8506472110748304,38.0939331054688,11.494635581970199,0.0153857199475169,11.510021209716802,7,7,7,7,7,7,7
191,21013,39.50906,-76.48647,Baldwin,MD,Maryland,Baltimore,275.27,1018.9625,72.985,0.1375,24005,94,4.785399436950679,0.0,91.5992660522461,0.323365747928619,3.2874388694763197,0.0,0.0045298901386559,0.0045298901386559,3,3,1,1,1,1,1
192,21520,39.62474,-79.3015,Accident,MD,Maryland,Garrett,272.41,1017.055,77.96249999999998,0.1125,24023,777,0.0,0.0,0.6026999950408941,8.12131309509277,85.507209777832,5.7454361915588406,0.023341029882431,5.76877737045288,2,2,1,1,1,1,1
193,21601,38.79377,-76.08178000000002,Easton,MD,Maryland,Talbot,275.27,1018.9625,72.985,0.1375,24041,4,52.9774017333984,0.0,0.139200001955032,2.8032991886138903,29.1648635864258,13.619291305542,1.29594397544861,14.9152355194092,7,7,7,7,7,7,7
194,21607,39.13272,-75.85418,Barclay,MD,Maryland,Queen Anne's,275.27,1018.9625,72.985,0.1375,24035,20,0.0,0.0,1.10179996490479,7.99460506439209,80.2054061889648,8.86338424682617,1.83480501174927,10.6981887817383,3,2,1,1,1,1,1
195,21613,38.49315,-76.07341,Cambridge,MD,Maryland,Dorchester,275.5325,1019.04,71.025,0.125,24019,-1,98.8386001586914,0.0,0.161399990320206,0.0209616422653198,0.30700471997261,0.539125680923462,0.13290779292583502,0.6720334887504581,7,7,7,7,7,7,7
196,21629,38.86273,-75.82791999999998,Denton,MD,Maryland,Caroline,275.27,1018.9625,72.985,0.1375,24011,16,0.0,0.0,2.12660002708435,6.01025199890137,58.5808334350586,26.34228515625,6.940030097961429,33.2823143005371,2,2,1,2,1,1,1
197,21701,39.44605,-77.33495,Frederick,MD,Maryland,Frederick,275.27,1018.9625,72.985,0.1375,24021,92,0.0,0.0,4.87330007553101,5.64211893081665,47.8171272277832,41.4203033447266,0.247152104973793,41.667453765869105,1,1,1,1,1,1,1
198,21801,38.38055,-75.64148,Salisbury,MD,Maryland,Wicomico,275.5325,1019.04,71.025,0.125,24045,13,0.0,0.0,0.689899981021881,8.54548072814941,87.93692016601558,2.06918144226074,0.7585178017616271,2.8276991844177206,2,2,1,2,1,1,1
199,21901,39.58572,-75.95843,North East,MD,Maryland,Cecil,275.27,1018.9625,72.985,0.1375,24015,19,0.0,0.99370002746582,0.9160999655723571,5.34388113021851,50.0295639038086,41.689002990722706,1.0277500152587902,42.7167549133301,7,7,7,7,7,7,7
200,22046,38.88711,-77.18075999999998,Falls Church,VA,Virginia,Falls Church,275.39,1018.99,70.985,0.105,51610,83,0.0,0.0,90.0124969482422,0.7778743505477909,7.6920485496521,1.5100320577621498,0.00754812313243747,1.51758015155792,3,2,1,1,1,1,1
201,22201,38.88665,-77.09518,Arlington,VA,Virginia,Arlington,275.39,1018.99,70.985,0.105,51013,15,9.21469974517822,0.0,68.656494140625,1.2986145019531299,10.2507925033569,10.540546417236301,0.0388525612652302,10.5793991088867,4,4,2,2,2,2,2
202,22301,38.82002,-77.05960999999998,Alexandria,VA,Virginia,Alexandria,275.5325,1019.04,71.025,0.125,51510,13,8.4419002532959,0.0,21.860900878906303,6.88259553909302,56.867027282714794,5.92752981185913,0.0200462192296982,5.94757604598999,7,7,7,7,7,7,7
203,22401,38.29918,-77.48713000000002,Fredericksburg,VA,Virginia,Fredericksburg,275.5325,1019.04,71.025,0.125,51630,40,0.0,0.0,3.77739977836609,19.747428894043,58.8743019104004,17.4033508300781,0.19751860201358803,17.6008701324463,3,2,1,1,1,1,1
204,22405,38.31521,-77.40371,Fredericksburg,VA,Virginia,Stafford,275.5325,1019.04,71.025,0.125,51179,61,0.0,0.0,19.006299972534197,8.50957679748535,32.0051803588867,40.363151550293004,0.115790300071239,40.4789428710938,3,2,1,1,1,1,1
205,22407,38.2834,-77.57529,Fredericksburg,VA,Virginia,Spotsylvania,275.5325,1019.04,71.025,0.125,51177,87,0.0,0.0,1.3108999729156499,26.6127033233643,59.49125671386721,12.1371746063232,0.447964489459991,12.585139274597198,3,2,1,1,1,1,1
206,22448,38.3405,-77.03217,Dahlgren,VA,Virginia,King George,275.5325,1019.04,71.025,0.125,51099,43,18.9258995056152,0.0,0.30349999666214,13.5429086685181,59.4997749328613,6.947250843048099,0.780666172504425,7.7279171943664595,3,2,1,1,1,1,1
207,22601,39.17472,-78.17353,Winchester,VA,Virginia,Winchester,275.39,1018.99,70.985,0.105,51840,203,0.0,0.0,1.01209998130798,2.94566369056702,19.9208297729492,75.8628768920898,0.258528411388397,76.1214065551758,1,1,1,1,1,1,1
208,22623,38.85156,-78.13736999999998,Chester Gap,VA,Virginia,Rappahannock,275.39,1018.99,70.985,0.105,51157,174,0.0,0.0,1.1201000213623,26.4375152587891,58.6909523010254,13.5156755447388,0.23575779795646698,13.7514333724976,3,2,1,1,1,1,1
209,22641,39.08061,-78.39151,Strasburg,VA,Virginia,Shenandoah,275.39,1018.99,70.985,0.105,51171,416,0.0,0.0,0.41209998726844804,26.944768905639602,60.193538665771506,12.4314680099487,0.0181242395192385,12.449592590332001,2,2,1,1,1,1,1
210,22650,38.759570000000004,-78.35993,Rileyville,VA,Virginia,Page,275.39,1018.99,70.985,0.105,51139,554,0.0,0.0,0.0395999997854233,36.7354850769043,60.6723747253418,2.55253982543945,0.0,2.55253982543945,3,2,1,1,1,1,1
211,22801,38.40459,-78.87716,Harrisonburg,VA,Virginia,Harrisonburg,277.4675,1019.2975,70.09,0.1225,51660,380,0.0,0.0,2.0386998653411896,17.5584564208984,46.523651123046896,32.4031181335449,1.4760750532150302,33.8791923522949,1,1,1,1,1,1,1
212,22843,38.368520000000004,-79.16038,Mount Solon,VA,Virginia,Augusta,277.4675,1019.2975,70.09,0.1225,51015,508,0.0,0.0,1.34130001068115,4.786202430725099,31.712547302246104,61.1787338256836,0.981217324733734,62.159950256347706,1,1,1,1,1,1,1
213,22901,38.08844000000001,-78.55617,Charlottesville,VA,Virginia,Albemarle,277.4675,1019.2975,70.09,0.1225,51003,173,0.0,0.0,0.6991999745368961,24.8813495635986,55.7757759094238,18.1728248596191,0.47085058689117404,18.6436748504639,3,2,1,1,1,1,1
214,22902,37.95389,-78.46996999999998,Charlottesville,VA,Virginia,Charlottesville,277.4675,1019.2975,70.09,0.1225,51540,146,0.0,0.0,0.976055562496185,26.830753326416,60.032901763915994,12.0431814193726,0.11710820347070698,12.160289764404302,3,2,1,1,1,1,1
215,22920,37.97724,-78.81071,Afton,VA,Virginia,Nelson,277.4675,1019.2975,70.09,0.1225,51125,210,0.0,0.0,0.5410199761390689,26.9614944458008,60.3254318237305,12.101865768432601,0.070187546312809,12.172053337097198,3,2,1,1,1,1,1
216,22942,38.10968,-78.19864,Gordonsville,VA,Virginia,Louisa,277.4675,1019.2975,70.09,0.1225,51109,116,0.0,0.0,0.8761349320411679,26.8659591674805,60.1116752624512,12.0589847564697,0.0872445926070213,12.1462297439575,3,2,1,1,1,1,1
217,22963,37.84921,-78.28843,Palmyra,VA,Virginia,Fluvanna,277.4675,1019.2975,70.09,0.1225,51065,95,0.0,0.0,0.522499978542328,26.9059562683105,60.1081047058105,12.4089965820313,0.0544430688023567,12.4634399414063,3,2,1,1,1,1,1
218,22980,38.09565,-78.88513,Waynesboro,VA,Virginia,Waynesboro,277.4675,1019.2975,70.09,0.1225,51820,458,0.0,0.0,0.9642809629440309,20.4429397583008,70.5084915161133,7.773851871490481,0.310435801744461,8.084287643432619,3,2,1,1,1,1,1
219,23002,37.35065,-77.96876999999998,Amelia Court House,VA,Virginia,Amelia,277.4675,1019.2975,70.09,0.1225,51007,100,0.0,0.0,0.6357439160346979,26.8589134216309,60.0959053039551,12.0558214187622,0.353616714477539,12.409438133239698,3,2,1,1,1,1,1
220,23004,37.68225,-78.40866,Arvonia,VA,Virginia,Buckingham,277.4675,1019.2975,70.09,0.1225,51029,169,0.0,0.0,0.576600015163422,26.7624015808105,58.8022384643555,13.766459465026902,0.0923002436757088,13.858759880065902,3,2,1,1,1,1,1
221,23005,37.75956,-77.48221,Ashland,VA,Virginia,Hanover,277.4675,1019.2975,70.09,0.1225,51085,65,0.0,0.0,54.4001998901367,1.5213451385498,11.6614818572998,32.3365669250488,0.0804056078195572,32.4169731140137,3,2,1,2,1,1,1
222,23009,37.81386,-77.18737,Aylett,VA,Virginia,King William,277.4675,1019.2975,70.09,0.1225,51101,23,2.99459981918335,0.0,1.1686999797821003,21.0239410400391,65.80010986328129,8.324855804443361,0.6877936124801639,9.01264953613281,3,2,1,2,1,1,1
223,23011,37.47681,-76.80954,Barhamsville,VA,Virginia,New Kent,277.4675,1019.2975,70.09,0.1225,51127,30,0.0,0.0,0.644699990749359,18.9425678253174,72.78248596191409,7.06836128234863,0.5618851780891421,7.63024663925171,3,2,1,2,1,1,1
224,23021,37.39782,-76.37016,Bohannon,VA,Virginia,Mathews,279.35,1019.1725,78.815,0.155,51115,0,100.0,0.0,0.0,0.0,0.0,0.0,0.0,0.0,7,7,7,7,7,7,7
225,23023,37.778659999999995,-76.95957,Bruington,VA,Virginia,King and Queen,277.4675,1019.2975,70.09,0.1225,51097,38,0.0,0.0,0.4424000084400179,21.3515567779541,62.3695259094238,14.941327095031701,0.8951901197433471,15.836517333984402,3,2,1,2,1,1,1
226,23030,37.346270000000004,-77.05928,Charles City,VA,Virginia,Charles City,277.4675,1019.2975,70.09,0.1225,51036,7,2.96399998664856,0.0,0.797441005706787,22.5860900878906,63.935520172119105,9.37936782836914,0.33758020401001,9.71694850921631,2,2,2,2,1,1,2
227,23038,37.75544,-78.14779,Columbia,VA,Virginia,Goochland,277.4675,1019.2975,70.09,0.1225,51075,90,0.0,0.0,2.0377998352050803,16.4233913421631,59.46525573730471,21.936580657959,0.136972293257713,22.073553085327102,3,2,1,1,1,1,1
228,23059,37.704879999999996,-77.56251,Glen Allen,VA,Virginia,Henrico,277.4675,1019.2975,70.09,0.1225,51087,8,22.2141990661621,0.0,29.136100769043,6.11089849472046,36.206600189209,6.183974742889401,0.148226901888847,6.332201480865481,7,7,7,7,7,7,7
229,23112,37.434979999999996,-77.66207,Midlothian,VA,Virginia,Chesterfield,277.4675,1019.2975,70.09,0.1225,51041,67,0.0,0.0,1.7886998653411899,25.689579010009798,59.944896697998,12.3134498596191,0.263374805450439,12.5768241882324,3,2,1,2,1,1,1
230,23139,37.54972,-77.93374,Powhatan,VA,Virginia,Powhatan,277.4675,1019.2975,70.09,0.1225,51145,105,0.0,0.0,1.43149995803833,21.9942245483398,62.8748779296875,12.927492141723599,0.771904587745667,13.699397087097198,3,2,1,1,1,1,1
231,23168,37.39997,-76.82728,Toano,VA,Virginia,James City,277.4675,1019.2975,70.09,0.1225,51095,31,63.8222999572754,0.0,1.74249994754791,2.97299432754517,23.327615737915,8.013706207275389,0.120883703231812,8.13459014892578,3,3,2,2,1,1,2
232,23187,37.26743,-76.72078,Williamsburg,VA,Virginia,Williamsburg,279.3025,1019.1825,78.2825,0.16,51830,23,63.9828987121582,0.0,21.2329006195068,1.34639120101929,7.650220394134519,5.78464794158936,0.0029413609299808697,5.78758907318115,3,2,1,2,1,1,1
233,23301,37.68333,-75.63618000000002,Accomac,VA,Virginia,Accomack,279.35,1019.1725,78.815,0.155,51001,13,10.0,0.0,1.0209999084472698,5.740497589111331,56.880455017089794,22.0063819885254,4.351665019989009,26.3580474853516,2,2,1,2,1,1,1
234,23304,36.9961,-76.57063000000002,Battery Park,VA,Virginia,Isle of Wight,279.3025,1019.1825,78.2825,0.16,51093,24,0.0,0.0,8.32919979095459,6.02807331085205,46.4165191650391,38.6409568786621,0.5852500796318051,39.2262077331543,2,2,2,2,1,1,2
235,23320,36.75193,-76.2183,Chesapeake,VA,Virginia,Chesapeake,279.58750000000003,1019.105,74.57,0.1875,51550,8,0.0,0.0,0.5573999881744379,18.9762172698975,52.0806274414063,28.25901222229,0.126743599772453,28.385755538940398,2,2,1,1,1,1,1
236,23451,36.86739,-76.00587,Virginia Beach,VA,Virginia,Virginia Beach,279.845,1018.17,74.50999999999998,0.195,51810,3,0.0,0.0,0.0,0.0,0.0,0.0,0.11325039714574801,0.11325039714574801,0,0,0,0,0,0,0
237,23601,37.05863,-76.46392,Newport News,VA,Virginia,Newport News,279.3025,1019.1825,78.2825,0.16,51700,10,82.907096862793,0.0,12.9020347595215,0.37514480948448203,3.8138587474823,1.16415321826935e-10,0.0018648060504347101,0.00186480616685003,7,7,7,7,7,7,7
238,23651,37.00917000000001,-76.30503,Fort Monroe,VA,Virginia,Hampton,279.35,1019.1725,78.815,0.155,51650,5,50.0,0.0,49.0,0.271273016929626,0.606964111328125,0.12176288664341,0.0,0.12176288664341,7,7,7,7,7,7,7
239,23662,37.131809999999994,-76.35673,Poquoson,VA,Virginia,Poquoson,279.35,1019.1725,78.815,0.155,51735,0,63.6118965148926,0.0,18.919399261474602,1.2982337474823,13.1840486526489,2.98642182350159,0.0,2.98642182350159,7,7,7,7,7,7,7
240,23701,36.811809999999994,-76.37078000000002,Portsmouth,VA,Virginia,Portsmouth,279.57750000000004,1019.1225,75.0475,0.1825,51740,6,0.0,0.0,9.086099624633789,7.14095497131348,32.7899208068848,50.707679748535206,0.27534669637680104,50.983024597168,3,2,1,2,1,1,1
241,23801,37.23535,-77.3353,Fort Lee,VA,Virginia,Prince George,277.4675,1019.2975,70.09,0.1225,51149,38,0.0,0.0,0.7323000431060791,26.5724411010742,59.102264404296896,13.1857748031616,0.4072191119194029,13.592993736267099,3,2,1,2,1,1,1
242,23803,37.21232,-77.48143,Petersburg,VA,Virginia,Petersburg,277.4675,1019.2975,70.09,0.1225,51730,49,0.0,0.0,1.02239990234375,24.765701293945302,57.982975006103494,15.6631755828857,0.5657479763031011,16.2289237976074,3,2,1,2,1,1,1
243,23821,36.88067,-77.92043000000002,Alberta,VA,Virginia,Brunswick,277.4675,1019.2975,70.09,0.1225,51025,76,0.0,0.0,0.483599990606308,25.0139484405518,62.05278015136721,11.7095508575439,0.740121304988861,12.4496717453003,3,2,1,1,1,1,1
244,23824,37.089620000000004,-77.96734000000002,Blackstone,VA,Virginia,Nottoway,277.4675,1019.2975,70.09,0.1225,51135,115,0.0,0.0,1.14289999008179,25.4952373504639,57.091487884521506,15.9770660400391,0.293307989835739,16.2703742980957,3,2,1,1,1,1,1
245,23827,36.61059,-77.2012,Boykins,VA,Virginia,Southampton,279.3025,1019.1825,78.2825,0.16,51175,17,0.0,0.0,0.47409999370575,14.6610050201416,57.0367584228516,26.773202896118196,1.05493295192719,27.8281364440918,3,2,1,2,1,1,1
246,23833,37.2077,-77.6727,Church Road,VA,Virginia,Dinwiddie,277.4675,1019.2975,70.09,0.1225,51053,78,0.0,0.0,0.48429998755455,23.708866119384798,60.5926933288574,14.822496414184599,0.391643494367599,15.2141399383545,3,2,1,1,1,1,1
247,23834,37.28974,-77.40366,Colonial Heights,VA,Virginia,Colonial Heights,277.4675,1019.2975,70.09,0.1225,51570,45,0.0,0.0,1.7663999795913703,24.5567111968994,54.8372383117676,18.343948364257802,0.49570360779762296,18.839651107788104,3,2,1,2,1,1,1
248,23839,37.07982,-76.91887,Dendron,VA,Virginia,Surry,279.3025,1019.1825,78.2825,0.16,51181,29,0.0,0.0,0.502499997615814,16.6867389678955,60.1360931396484,21.715387344360398,0.9592803120613101,22.6746673583984,2,2,1,2,1,1,1
249,23847,36.670429999999996,-77.55067,Emporia,VA,Virginia,Greensville,277.4675,1019.2975,70.09,0.1225,51081,42,0.0,0.0,0.657899975776672,18.7047271728516,54.8290138244629,25.142581939697298,0.665777027606964,25.808359146118196,3,2,1,2,1,1,1
250,23860,37.27984,-77.21731,Hopewell,VA,Virginia,Hopewell,277.4675,1019.2975,70.09,0.1225,51670,43,0.0,0.0,0.9653999805450441,25.0615577697754,57.523475646972706,16.198020935058597,0.251545399427414,16.449565887451197,3,2,1,2,1,1,1
251,23901,37.31622,-78.41609,Farmville,VA,Virginia,Prince Edward,277.4675,1019.2975,70.09,0.1225,51147,135,0.0,0.0,0.7430691123008729,26.8663158416748,60.11247253417971,12.059144973754899,0.218997895717621,12.2781429290771,3,2,1,1,1,1,1
252,23915,36.70149,-78.28676999999998,Baskerville,VA,Virginia,Mecklenburg,278.87,1019.545,74.69,0.2075,51117,87,24.984399795532198,0.0,0.515500009059906,13.942268371582001,45.3433303833008,15.072710990905799,0.141790106892586,15.214501380920401,3,2,1,1,1,1,1
253,23923,37.09234,-78.64394,Charlotte Court House,VA,Virginia,Charlotte,277.4675,1019.2975,70.09,0.1225,51037,131,0.0,0.0,0.7909999489784241,12.2809448242188,31.6184768676758,54.0027923583984,1.30678594112396,55.3095779418945,3,2,1,1,1,1,1
254,23944,36.90668,-78.13427,Kenbridge,VA,Virginia,Lunenburg,277.4675,1019.2975,70.09,0.1225,51111,132,0.0,0.0,0.554799973964691,16.358934402465803,40.9363021850586,39.516517639160206,2.63344693183899,42.1499633789063,3,2,1,1,1,1,1
255,23958,37.26651,-78.65975,Pamplin,VA,Virginia,Appomattox,277.4675,1019.2975,70.09,0.1225,51011,209,0.0,0.0,0.7310999631881709,24.9602031707764,55.0363845825195,18.6229038238525,0.6494078040122989,19.2723121643066,3,2,1,1,1,1,1
256,24011,37.27044,-79.94126999999997,Roanoke,VA,Virginia,Roanoke,277.855,1019.3675,72.9025,0.355,51770,368,0.0,0.0,1.4065999984741202,25.8142986297607,58.563961029052706,14.077220916747999,0.137919798493385,14.2151403427124,3,2,1,1,1,1,1
257,24053,36.608579999999996,-80.53375,Ararat,VA,Virginia,Patrick,277.855,1019.3675,72.9025,0.355,51141,369,0.0,0.0,1.09370005130768,10.665699005127,32.2633666992188,55.2280807495117,0.749153971672058,55.9772338867188,3,2,1,1,1,1,1
258,24054,36.67394,-79.70510999999998,Axton,VA,Virginia,Henry,278.04999999999995,1019.4075,73.0875,0.3675,51089,277,0.0,0.0,1.6980999708175701,18.984817504882802,60.2715644836426,17.9492416381836,1.0962769985199,19.045518875122102,3,2,1,1,1,1,1
259,24058,37.18414,-80.6157,Belspring,VA,Virginia,Pulaski,277.855,1019.3675,72.9025,0.355,51155,617,0.0,0.0,0.742799997329712,25.4371738433838,59.6796455383301,13.929100990295401,0.211279094219208,14.1403799057007,3,2,1,1,1,1,1
260,24064,37.37194,-79.77645,Blue Ridge,VA,Virginia,Botetourt,278.04999999999995,1019.4075,73.0875,0.3675,51023,364,0.0,0.0,0.9550999999046329,20.6774044036865,49.5937004089355,28.705415725707997,0.0683810487389565,28.773796081543,3,2,1,1,1,1,1
261,24069,36.58325,-79.63481,Cascade,VA,Virginia,Pittsylvania,278.04999999999995,1019.4075,73.0875,0.3675,51143,206,0.0,0.0,1.85389995574951,3.3006105422973597,29.687820434570302,62.5601272583008,2.59754300117493,65.1576690673828,3,2,1,1,1,1,1
262,24072,37.03633,-80.2329,Check,VA,Virginia,Floyd,277.855,1019.3675,72.9025,0.355,51063,772,0.0,0.0,0.695199966430664,26.8152904510498,59.926631927490206,12.292010307312,0.27086740732193,12.562877655029302,3,2,2,1,1,1,2
263,24086,37.27426,-80.6343,Eggleston,VA,Virginia,Giles,277.855,1019.3675,72.9025,0.355,51071,584,0.0,0.0,0.725199937820435,18.215648651123,61.8844337463379,18.947313308715803,0.227404206991196,19.174716949462898,2,2,1,1,1,1,1
264,24127,37.486309999999996,-80.19046,New Castle,VA,Virginia,Craig,277.855,1019.3675,72.9025,0.355,51045,776,0.0,0.0,0.519999980926514,26.163988113403303,61.2839508056641,11.8807029724121,0.15135779976844801,12.0320606231689,3,2,1,1,1,1,1
265,24141,37.09487,-80.56832,Radford,VA,Virginia,Radford,277.855,1019.3675,72.9025,0.355,51750,611,0.0,0.0,0.7700999975204471,26.3829288482666,59.6545066833496,12.9912118911743,0.20125189423561105,13.1924638748169,3,2,2,1,1,1,2
266,24216,36.9437,-82.79763,Appalachia,VA,Virginia,Wise,277.375,1020.0125,79.19749999999998,0.235,51195,776,0.0,0.0,0.32199999690055797,16.4632816314697,77.79730224609379,5.413650035858151,0.00376626010984182,5.41741609573364,2,2,1,1,1,1,1
267,24217,37.08415,-82.17205,Bee,VA,Virginia,Dickenson,277.375,1020.0125,79.19749999999998,0.235,51051,585,0.0,0.0,0.48229998350143394,20.7301425933838,68.306510925293,10.4810466766357,0.0,10.4810466766357,2,1,3,1,1,1,3
268,24221,36.63361,-82.99548,Blackwater,VA,Virginia,Lee,277.375,1020.0125,79.19749999999998,0.235,51105,476,0.0,0.0,0.6836000084877011,9.60986423492432,85.743522644043,3.9234011173248304,0.0396120809018612,3.96301317214966,3,2,1,1,1,1,1
269,24224,36.862320000000004,-82.28197,Castlewood,VA,Virginia,Russell,277.375,1020.0125,79.19749999999998,0.235,51167,740,0.0,0.0,0.5974000096321109,20.1470928192139,67.84543609619139,11.359658241272,0.05041282996535299,11.410071372985803,3,2,1,1,1,1,1
270,24239,37.113479999999996,-82.15014000000002,Davenport,VA,Virginia,Buchanan,277.375,1020.0125,79.19749999999998,0.235,51027,646,0.0,0.0,0.917078971862793,9.58675289154053,88.9820175170898,0.480122327804565,0.0340287201106548,0.514151036739349,2,2,2,1,1,1,2
271,24244,36.71568,-82.78923,Duffield,VA,Virginia,Scott,277.375,1020.0125,79.19749999999998,0.235,51169,554,0.0,0.0,14.229999542236301,14.4470043182373,54.592445373535206,16.5729904174805,0.157561004161835,16.7305507659912,2,2,1,1,1,1,1
272,24273,36.96167,-82.65647,Norton,VA,Virginia,Norton,277.375,1020.0125,79.19749999999998,0.235,51720,996,0.0,0.0,0.4038999974727629,19.354669570922898,71.1259231567383,9.056417465209961,0.0590900704264641,9.11550712585449,3,2,1,1,1,1,1
273,24292,36.61457,-81.57778,Whitetop,VA,Virginia,Grayson,277.855,1019.3675,72.9025,0.355,51077,841,0.0,0.0,0.557799994945526,26.5953197479248,59.2970085144043,12.6837511062622,0.866119921207428,13.5498714447021,3,2,2,1,1,1,2
274,24311,36.88173,-81.40915,Atkins,VA,Virginia,Smyth,277.855,1019.3675,72.9025,0.355,51173,851,0.0,0.0,0.8938999772071842,25.1647129058838,61.550872802734396,12.3683815002441,0.0221326407045126,12.390514373779302,3,2,2,1,1,1,2
275,24313,36.90827,-80.80658000000003,Barren Springs,VA,Virginia,Wythe,277.855,1019.3675,72.9025,0.355,51197,748,0.0,0.0,0.549199998378754,25.908617019653303,59.332183837890604,14.1398391723633,0.0701603069901466,14.209999084472699,3,2,1,1,1,1,1
276,24314,37.16731,-81.21383,Bastian,VA,Virginia,Bland,277.855,1019.3675,72.9025,0.355,51021,821,0.0,0.0,0.427199989557266,23.272275924682603,55.4917869567871,20.744449615478498,0.0642874985933304,20.8087368011475,3,2,1,1,1,1,1
277,24316,36.95465,-81.67291,Broadford,VA,Virginia,Tazewell,277.855,1019.3675,72.9025,0.355,51185,786,0.0,0.0,0.5329999923706049,16.6124687194824,62.002113342285206,20.7483081817627,0.104111596941948,20.8524188995361,2,2,1,1,1,1,1
278,24333,36.63834,-80.92883,Galax,VA,Virginia,Galax,277.855,1019.3675,72.9025,0.355,51640,805,0.0,0.0,1.08875405788422,26.7984561920166,59.960636138915994,12.0286855697632,0.12346780300140402,12.1521530151367,3,2,2,1,1,1,2
279,24401,38.13353,-79.08591,Staunton,VA,Virginia,Staunton,277.4675,1019.2975,70.09,0.1225,51790,428,0.0,0.0,3.3355998992919904,3.38720703125,21.2478427886963,69.83681488037111,2.192538022995,72.0293502807617,1,1,1,1,1,1,1
280,24412,38.05505,-79.82804,Bacova,VA,Virginia,Bath,277.4675,1019.2975,70.09,0.1225,51017,542,0.0,0.0,0.29077318310737604,27.198806762695302,60.261447906494105,12.2397518157959,0.00922043435275555,12.2489719390869,2,2,1,1,1,1,1
281,24413,38.52851,-79.59324000000002,Blue Grass,VA,Virginia,Highland,272.41,1017.055,77.96249999999998,0.1125,51091,677,0.0,0.0,0.132077947258949,25.6335525512695,63.034782409668,11.184233665466301,0.0153540102764964,11.199587821960401,2,2,2,1,1,1,2
282,24415,37.925059999999995,-79.31711,Brownsburg,VA,Virginia,Rockbridge,277.4675,1019.2975,70.09,0.1225,51163,345,0.0,0.0,12.0916004180908,15.7492218017578,53.3188400268555,18.7437973022461,0.0965408235788345,18.8403377532959,3,2,1,1,1,1,1
283,24416,37.7223,-79.3607,Buena Vista,VA,Virginia,Buena Vista,277.4675,1019.2975,70.09,0.1225,51530,548,0.0,0.0,0.40010660886764504,27.0124340057373,60.439395904540994,12.1247291564941,0.0233344398438931,12.148063659667999,3,2,1,1,1,1,1
284,24422,37.82994,-79.75643000000002,Clifton Forge,VA,Virginia,Alleghany,278.04999999999995,1019.4075,73.0875,0.3675,51005,742,0.0,0.0,0.239699989557266,25.1670932769775,60.3256149291992,14.0856847763062,0.18190810084342998,14.267592430114698,2,2,2,1,1,1,2
285,24501,37.353,-79.15576,Lynchburg,VA,Virginia,Lynchburg,277.4675,1019.2975,70.09,0.1225,51680,228,0.0,0.0,2.32249999046326,23.4460182189941,52.811393737793,20.9438438415527,0.476244509220123,21.4200878143311,3,2,1,1,1,1,1
286,24517,37.14937000000001,-79.22977,Altavista,VA,Virginia,Campbell,278.04999999999995,1019.4075,73.0875,0.3675,51031,213,0.0,0.0,1.00529992580414,18.9427471160889,54.5769195556641,24.3265533447266,1.14847898483276,25.4750328063965,3,2,1,1,1,1,1
287,24520,36.58395,-79.03673,Alton,VA,Virginia,Halifax,278.87,1019.545,74.69,0.2075,51083,122,0.0,0.0,0.8152999877929691,24.995777130127,58.6499633789063,14.8614025115967,0.677557826042175,15.538960456848098,3,2,1,1,1,1,1
288,24521,37.63442,-79.09689,Amherst,VA,Virginia,Amherst,277.4675,1019.2975,70.09,0.1225,51009,268,0.0,0.0,1.51160001754761,25.110187530517603,56.9503288269043,16.354539871215803,0.0733435526490211,16.4278831481934,3,2,1,1,1,1,1
289,24540,36.64309,-79.4234,Danville,VA,Virginia,Danville,278.04999999999995,1019.4075,73.0875,0.3675,51590,154,0.0,0.0,1.51859998703003,13.1419429779053,60.967777252197294,23.007371902465803,1.3643079996109,24.371679306030302,3,2,1,1,1,1,1
290,24801,37.442609999999995,-81.5776,Welch,WV,West Virginia,McDowell,277.855,1019.3675,72.9025,0.355,54047,611,0.0,0.0,0.6430999636650091,11.828733444213901,84.8333358764648,2.69380569458008,0.0010254180524498198,2.69483113288879,2,1,3,1,1,1,3
291,24846,37.53033,-81.90864,Isaban,WV,West Virginia,Mingo,277.855,1019.3675,72.9025,0.355,54059,442,0.0,0.0,1.5348588228225701,8.8164758682251,89.63232421875,0.0,0.0163411200046539,0.0163411200046539,1,1,4,1,1,1,4
292,24901,37.84062,-80.46534,Lewisburg,WV,West Virginia,Greenbrier,277.855,1019.3675,72.9025,0.355,54025,685,0.0,0.0,0.869899988174438,14.773272514343299,79.3298263549805,4.99842691421509,0.0285743791610003,5.02700138092041,2,2,1,1,1,1,1
293,24915,38.46521,-79.77636,Arbovale,WV,West Virginia,Pocahontas,272.41,1017.055,77.96249999999998,0.1125,54075,855,0.0,0.0,0.279356181621552,26.5022373199463,61.4280662536621,11.775133132934599,0.0152076603844762,11.790340423584,3,2,1,1,1,1,1
294,24935,37.56075,-80.81113,Forest Hill,WV,West Virginia,Summers,277.855,1019.3675,72.9025,0.355,54089,555,0.0,0.0,0.771999955177307,8.72163391113281,78.0612335205078,12.3096446990967,0.13548719882965102,12.4451322555542,3,2,1,1,1,1,1
295,25005,38.58088,-81.26921,Amma,WV,West Virginia,Roane,271.96750000000003,1018.275,78.4575,0.0975,54087,311,0.0,0.0,0.5910128355026251,8.90110969543457,90.49279022216801,0.0,0.015087160281837,0.015087160281837,2,2,1,1,1,1,1
296,25007,37.825359999999996,-81.42866,Arnett,WV,West Virginia,Raleigh,277.855,1019.3675,72.9025,0.355,54081,763,0.0,0.0,0.796036958694458,8.87899398803711,90.2679061889648,0.0,0.0570629797875881,0.0570629797875881,2,2,1,1,1,1,1
297,25009,38.191990000000004,-81.71202,Ashford,WV,West Virginia,Boone,271.96750000000003,1018.275,78.4575,0.0975,54005,428,0.0,0.0,0.37919998168945296,8.48571395874023,87.9165573120117,3.2160053253173797,0.00252298801206052,3.2185282707214395,2,1,3,1,1,1,3
298,25015,38.24257,-81.50234,Belle,WV,West Virginia,Kanawha,271.96750000000003,1018.275,78.4575,0.0975,54039,385,0.0,0.0,5.8523068428039595,8.43077182769775,85.7111282348633,0.0,0.00579264014959335,0.00579264014959335,2,1,3,1,1,1,3
299,25019,38.37293,-81.08679000000002,Bickmore,WV,West Virginia,Clay,271.96750000000003,1018.275,78.4575,0.0975,54015,361,0.0,0.0,0.7022207379341129,8.89248657226563,90.4051132202148,0.0,0.000179238399141468,0.000179238399141468,2,2,2,1,1,1,2
300,25022,37.85869,-81.8117,Blair,WV,West Virginia,Logan,274.805,1017.33,77.3025,0.095,54045,483,0.0,0.0,1.32339155673981,8.83609771728516,89.8318023681641,0.0,0.008708535693585871,0.008708535693585871,1,1,4,1,1,1,4
301,25063,38.58235,-80.93417,Duck,WV,West Virginia,Braxton,272.41,1017.055,77.96249999999998,0.1125,54007,399,0.0,0.0,0.610081970691681,8.90024471282959,90.4839553833008,4.65661287307739e-10,0.00571803608909249,0.0057180365547537795,2,2,2,1,1,1,2
302,25106,38.78321,-82.08843,Henderson,WV,West Virginia,Mason,271.96750000000003,1018.275,78.4575,0.0975,54053,210,0.0,0.0,1.15269994735718,8.59204959869385,88.2467575073242,1.7496626377105702,0.258830100297928,2.00849270820618,2,1,1,1,1,1,1
303,25234,38.8106,-81.12968000000002,Arnoldsburg,WV,West Virginia,Calhoun,271.96750000000003,1018.275,78.4575,0.0975,54013,338,0.0,0.0,0.5874351263046259,8.90274715423584,90.5094528198242,0.0,0.00036487940815277403,0.00036487940815277403,2,2,1,1,1,1,1
304,25239,38.84049,-81.8431,Cottageville,WV,West Virginia,Jackson,271.96750000000003,1018.275,78.4575,0.0975,54035,242,0.0,0.0,0.922799944877625,8.69962501525879,89.09100341796879,1.26264488697052,0.0239266697317362,1.28657150268555,2,2,1,1,1,1,1
305,25267,38.84773,-80.94138000000002,Normantown,WV,West Virginia,Gilmer,272.41,1017.055,77.96249999999998,0.1125,54021,327,0.0,0.0,0.5407702922821039,8.906534194946289,90.54796600341801,0.0,0.00472968677058816,0.00472968677058816,2,2,1,1,1,1,1
306,25401,39.45683,-77.97265,Martinsburg,WV,West Virginia,Berkeley,275.39,1018.99,70.985,0.105,54003,154,0.0,0.0,1.96359992027283,3.90009713172913,31.598487854003896,61.963840484619105,0.573974370956421,62.537815093994105,1,1,1,1,1,1,1
307,25411,39.55551,-78.21892,Berkeley Springs,WV,West Virginia,Morgan,275.39,1018.99,70.985,0.105,54065,248,0.0,0.0,0.95285838842392,8.86880111694336,90.16429901123051,9.313225746154791e-10,0.0140415895730257,0.0140415905043483,2,2,1,1,1,1,1
308,25504,38.373290000000004,-82.26409,Barboursville,WV,West Virginia,Cabell,271.96750000000003,1018.275,78.4575,0.0975,54011,246,0.0,0.0,1.83136868476868,8.788181304931639,89.34471893310551,0.0,0.0357314310967922,0.0357314310967922,2,2,1,1,1,1,1
309,26003,40.07399,-80.64996,Wheeling,WV,West Virginia,Ohio,272.41,1017.055,77.96249999999998,0.1125,54069,372,0.0,0.0,0.643235385417938,8.89368724822998,90.4173126220703,3.7252902984619103e-09,0.0457646399736404,0.0457646436989307,3,2,1,1,1,1,1
310,26030,40.22631,-80.65581,Beech Bottom,WV,West Virginia,Brooke,272.41,1017.055,77.96249999999998,0.1125,54009,338,0.0,0.0,1.4836999177932702,8.42255973815918,86.7892532348633,3.18726253509521,0.117224402725697,3.3044869899749796,3,2,1,1,1,1,1
311,26031,40.008379999999995,-80.72245,Benwood,WV,West Virginia,Marshall,272.41,1017.055,77.96249999999998,0.1125,54051,373,0.0,0.0,0.5219233036041261,8.908464431762699,90.56753540039058,2.3283064365387e-10,0.00207667704671621,0.0020766772795468603,2,2,1,1,1,1,1
312,26101,39.23903,-81.5762,Parkersburg,WV,West Virginia,Wood,271.96750000000003,1018.275,78.4575,0.0975,54107,232,0.0,0.0,0.9082386493682858,8.868977546691891,90.1661224365234,0.0,0.0566613115370274,0.0566613115370274,2,2,1,1,1,1,1
313,26134,39.367979999999996,-81.2876,Belmont,WV,West Virginia,Pleasants,271.96750000000003,1018.275,78.4575,0.0975,54073,310,0.0,0.0,0.56879997253418,8.730457305908201,89.4082565307617,1.2700206041336102,0.0224653892219067,1.29248595237732,2,2,1,1,1,1,1
314,26138,39.02869000000001,-81.20432,Brohard,WV,West Virginia,Wirt,271.96750000000003,1018.275,78.4575,0.0975,54105,261,0.0,0.0,0.535841345787048,8.90578651428223,90.54031372070308,0.0,0.0180586706846952,0.0180586706846952,2,2,1,1,1,1,1
315,26146,39.45283,-81.04397,Friendly,WV,West Virginia,Tyler,272.41,1017.055,77.96249999999998,0.1125,54095,279,0.0,0.0,0.42647421360015897,8.91419982910156,90.6259002685547,0.0,0.0334258005023003,0.0334258005023003,2,2,1,1,1,1,1
316,26148,39.06903,-81.18634,Macfarlan,WV,West Virginia,Ritchie,272.41,1017.055,77.96249999999998,0.1125,54085,292,0.0,0.0,0.339358180761337,8.92163848876953,90.7014617919922,0.0,0.0375418215990067,0.0375418215990067,2,2,1,1,1,1,1
317,26155,39.63218,-80.76541,New Martinsville,WV,West Virginia,Wetzel,272.41,1017.055,77.96249999999998,0.1125,54103,342,0.0,0.0,0.467166274785995,8.91287231445313,90.6123275756836,4.65661287307739e-10,0.00763368792831898,0.0076336883939802595,2,2,1,1,1,1,1
318,26201,39.00049,-80.20388,Buckhannon,WV,West Virginia,Upshur,272.41,1017.055,77.96249999999998,0.1125,54097,575,0.0,0.0,0.570780634880066,8.90350246429443,90.51709747314449,9.313225746154791e-10,0.00861933454871178,0.00861933548003435,2,2,1,1,1,1,1
319,26202,38.21812,-80.61906,Fenwick,WV,West Virginia,Nicholas,277.855,1019.3675,72.9025,0.355,54067,654,0.0,0.0,0.519900023937225,10.6404714584351,87.30514526367192,1.51936018466949,0.0151233300566673,1.5344835519790603,2,2,1,1,1,1,1
320,26203,38.54088,-80.58269,Erbacon,WV,West Virginia,Webster,272.41,1017.055,77.96249999999998,0.1125,54101,754,0.0,0.0,0.233400002121925,8.93448448181152,90.8321151733398,0.0,0.0,0.0,2,1,2,1,1,1,2
321,26224,38.740320000000004,-80.18293,Helvetia,WV,West Virginia,Randolph,272.41,1017.055,77.96249999999998,0.1125,54083,1057,0.0,0.0,0.0865518301725388,8.94742298126221,90.9635772705078,0.0,0.0024481660220772,0.0024481660220772,2,2,1,1,1,1,1
322,26238,39.10308,-80.15939,Volga,WV,West Virginia,Barbour,272.41,1017.055,77.96249999999998,0.1125,54001,524,0.0,0.0,1.46990811824799,8.822202682495119,89.6905975341797,0.0,0.0172917991876602,0.0172917991876602,2,2,1,1,1,1,1
323,26260,39.07893,-79.41767,Davis,WV,West Virginia,Tucker,272.41,1017.055,77.96249999999998,0.1125,54093,900,0.0,0.0,0.221013128757477,8.93546676635742,90.84203338623051,0.0,0.00148688303306699,0.00148688303306699,2,1,2,1,1,1,2
324,26301,39.28976,-80.37938,Clarksburg,WV,West Virginia,Harrison,272.41,1017.055,77.96249999999998,0.1125,54033,349,0.0,0.0,1.48006927967072,8.81958293914795,89.6639175415039,0.0,0.0364305898547173,0.0364305898547173,2,2,1,1,1,1,1
325,26339,39.41965,-80.61062,Center Point,WV,West Virginia,Doddridge,272.41,1017.055,77.96249999999998,0.1125,54017,351,0.0,0.0,0.456297397613525,8.91317462921143,90.6154251098633,0.0,0.0151025597006083,0.0151025597006083,2,2,1,1,1,1,1
326,26347,39.25656,-80.12613,Flemington,WV,West Virginia,Taylor,272.41,1017.055,77.96249999999998,0.1125,54091,382,0.0,0.0,1.12189781665802,8.8532772064209,90.0065231323242,0.0,0.0183020699769258,0.0183020699769258,2,2,1,1,1,1,1
327,26374,39.45058,-79.87894,Independence,WV,West Virginia,Preston,272.41,1017.055,77.96249999999998,0.1125,54077,594,0.0,0.0,0.310372203588486,8.92707061767578,90.7567291259766,0.0,0.0058278008364141,0.0058278008364141,2,2,1,1,1,1,1
328,26501,39.630140000000004,-80.04138,Morgantown,WV,West Virginia,Monongalia,272.41,1017.055,77.96249999999998,0.1125,54061,361,0.0,0.0,1.38904190063477,8.82046413421631,89.6729354858398,0.0,0.11755809932947198,0.11755809932947198,2,2,1,1,1,1,1
329,26554,39.4668,-80.11485,Fairmont,WV,West Virginia,Marion,272.41,1017.055,77.96249999999998,0.1125,54049,336,0.0,0.0,1.86179983615875,8.72289180755615,88.5758895874023,0.733904004096985,0.10551510006189299,0.83941912651062,2,2,1,1,1,1,1
330,26707,39.22442,-79.39584,Bayard,WV,West Virginia,Grant,272.41,1017.055,77.96249999999998,0.1125,54023,365,0.0,0.0,2.58899998664856,7.59749889373779,81.45481872558591,8.23125743865967,0.127425193786621,8.35868263244629,2,2,1,1,1,1,1
331,26710,39.30719000000001,-78.94228000000003,Burlington,WV,West Virginia,Mineral,272.41,1017.055,77.96249999999998,0.1125,54057,266,0.0,0.0,0.611999988555908,8.81328773498535,89.8446731567383,0.477960348129272,0.252078592777252,0.730038940906525,2,2,1,1,1,1,1
332,26801,39.05028,-78.80364,Baker,WV,West Virginia,Hardy,275.39,1018.99,70.985,0.105,54031,577,0.0,0.0,0.398510605096817,19.9403133392334,72.21343994140629,7.38806247711182,0.0596729815006256,7.44773530960083,2,2,2,1,1,1,2
333,26802,38.627520000000004,-79.19655,Brandywine,WV,West Virginia,Pendleton,275.39,1018.99,70.985,0.105,54071,790,0.0,0.0,0.398902356624603,26.9988632202148,60.4090385437012,12.118638992309599,0.0745568200945854,12.1931953430176,2,2,1,1,1,1,1
334,27006,35.94454,-80.43766,Advance,NC,North Carolina,Davie,277.855,1019.3675,72.9025,0.355,37059,234,0.0,0.0,1.9974000453949,7.6814670562744105,31.109203338623,58.503044128418,0.708887100219727,59.2119293212891,3,2,1,1,1,1,1
335,27009,36.233059999999995,-80.07611999999997,Belews Creek,NC,North Carolina,Forsyth,277.855,1019.3675,72.9025,0.355,37067,280,0.0,0.0,17.1545009613037,1.3724079132080098,8.78579711914063,71.90785217285159,0.779442429542542,72.6872940063477,3,2,1,1,1,1,1
336,27011,36.2156,-80.69667,Boonville,NC,North Carolina,Yadkin,277.855,1019.3675,72.9025,0.355,37197,268,0.0,0.0,1.70490002632141,4.94627094268799,23.5967845916748,69.0952072143555,0.656836926937103,69.75204467773439,3,2,1,1,1,1,1
337,27013,35.75594,-80.70351,Cleveland,NC,North Carolina,Rowan,277.855,1019.3675,72.9025,0.355,37159,238,0.0,0.0,2.77390003204346,2.5168886184692405,19.833028793335,74.0731887817383,0.802994608879089,74.8761825561523,3,2,1,1,1,1,1
338,27016,36.451679999999996,-80.21452,Danbury,NC,North Carolina,Stokes,277.855,1019.3675,72.9025,0.355,37169,300,0.0,0.0,1.87429988384247,11.1877765655518,34.438484191894496,52.0460433959961,0.453397005796432,52.499439239502,3,2,1,1,1,1,1
339,27201,36.034240000000004,-79.48485,Alamance,NC,North Carolina,Alamance,278.04999999999995,1019.4075,73.0875,0.3675,37001,173,0.0,0.0,1.90229988098145,6.69901466369629,52.4262199401855,38.426849365234396,0.545616984367371,38.972465515136705,3,2,1,1,1,1,1
340,27207,35.60548,-79.39299,Bear Creek,NC,North Carolina,Chatham,279.115,1018.595,76.28250000000001,0.225,37037,113,0.0,0.0,2.11019992828369,17.293062210083,72.7445297241211,7.38747119903564,0.46473699808120705,7.85220813751221,3,2,1,1,1,1,1
341,27212,36.46058,-79.28064,Blanch,NC,North Carolina,Caswell,278.87,1019.545,74.69,0.2075,37033,172,0.0,0.0,1.10920000076294,9.17275238037109,37.3107948303223,51.18843078613279,1.21882295608521,52.407253265380895,3,2,1,1,1,1,1
342,27214,36.21252,-79.67859,Browns Summit,NC,North Carolina,Guilford,278.04999999999995,1019.4075,73.0875,0.3675,37081,224,0.0,0.0,3.17640018463135,2.82541179656982,28.122394561767603,64.2087478637695,1.66704702377319,65.87579345703129,3,2,1,1,1,1,1
343,27239,35.60758,-80.08959,Denton,NC,North Carolina,Davidson,278.3,1019.515,74.9325,0.4425,37057,250,0.0,0.0,1.4178998470306399,13.9446411132813,71.8392105102539,12.353252410888699,0.44499599933624295,12.798248291015598,3,2,1,1,1,1,1
344,27242,35.33052,-79.63977,Eagle Springs,NC,North Carolina,Moore,280.9525,1019.6075,74.97,0.1775,37125,139,0.0,0.0,12.4678001403809,17.873371124267603,48.99467468261721,19.6856727600098,0.978481113910675,20.6641540527344,2,2,1,1,1,1,1
345,27343,36.50309,-79.09172,Semora,NC,North Carolina,Person,278.87,1019.545,74.69,0.2075,37145,202,0.0,0.0,1.8489998579025302,4.723135948181151,37.682701110839794,54.7870864868164,0.958077073097229,55.74516296386721,3,2,1,1,1,1,1
346,27501,35.48576,-78.68494,Angier,NC,North Carolina,Harnett,279.20750000000004,1018.3375,77.4275,0.2325,37085,44,0.0,0.0,1.0066000223159801,3.67217588424683,41.0053939819336,53.62455749511721,0.691271722316742,54.3158302307129,3,2,1,2,1,1,1
347,27502,35.7201,-78.91507,Apex,NC,North Carolina,Wake,279.115,1018.595,76.28250000000001,0.225,37183,97,0.0,0.0,5.26749992370605,4.4561824798584,34.510959625244105,52.701698303222706,3.0636610984802206,55.7653579711914,3,2,1,1,1,1,1
348,27503,36.159259999999996,-78.8778,Bahama,NC,North Carolina,Durham,278.87,1019.545,74.69,0.2075,37063,113,0.0,0.0,2.74230003356934,11.9742679595947,64.540397644043,20.5908241271973,0.152210503816605,20.743034362793,3,2,1,1,1,1,1
349,27504,35.39897,-78.51901,Benson,NC,North Carolina,Johnston,279.20750000000004,1018.3375,77.4275,0.2325,37101,46,0.0,0.0,0.574199974536896,7.21336126327515,62.9574966430664,28.714731216430696,0.540210902690887,29.254941940307603,3,2,1,2,1,1,1
350,27507,36.51271,-78.56306,Bullock,NC,North Carolina,Granville,278.87,1019.545,74.69,0.2075,37077,144,0.0,0.0,0.940199971199036,20.315120697021502,57.820529937744105,19.342563629150398,1.5815839767456101,20.924148559570302,3,2,1,1,1,1,1
351,27536,36.32669,-78.40883000000002,Henderson,NC,North Carolina,Vance,278.87,1019.545,74.69,0.2075,37181,142,0.0,0.0,1.29509997367859,19.4859218597412,51.99604797363279,25.3495941162109,1.87333595752716,27.2229309082031,3,2,1,1,1,1,1
352,27557,35.77609,-78.19922,Middlesex,NC,North Carolina,Nash,279.20750000000004,1018.3375,77.4275,0.2325,37127,56,0.0,0.0,1.5489000082016,1.7202144861221298,12.180607795715302,78.5959014892578,5.95437288284302,84.55027770996091,3,2,1,1,1,1,1
353,27801,35.9155,-77.7361,Rocky Mount,NC,North Carolina,Edgecombe,279.20750000000004,1018.3375,77.4275,0.2325,37065,21,0.0,0.0,0.679000020027161,4.55507564544678,26.705133438110398,64.1244659423828,3.93632698059082,68.060791015625,3,2,1,2,1,1,1
354,27805,36.20783,-77.08434,Aulander,NC,North Carolina,Hertford,279.58750000000003,1019.105,74.57,0.1875,37091,19,0.0,0.0,0.73910003900528,18.4312515258789,60.071468353271506,18.0948696136475,2.6633110046386697,20.7581806182861,3,2,1,2,1,1,1
355,27806,35.29727000000001,-76.76526,Aurora,NC,North Carolina,Beaufort,283.2775,1019.645,77.50999999999998,0.1325,37013,6,0.0,0.0,0.0,0.0,0.0,0.0,0.161825895309448,0.161825895309448,0,0,0,0,0,0,0
356,27812,35.81566,-77.36924,Bethel,NC,North Carolina,Pitt,279.20750000000004,1018.3375,77.4275,0.2325,37147,19,0.0,0.0,0.873300015926361,9.63218402862549,77.4340286254883,11.363782882690401,0.696704924106598,12.060487747192399,3,2,1,2,1,1,1
357,27813,35.63089,-77.93603,Black Creek,NC,North Carolina,Wilson,279.20750000000004,1018.3375,77.4275,0.2325,37195,28,0.0,0.0,1.0210999250411998,3.30773258209229,25.825403213501,68.0292892456055,1.8164739608764602,69.84576416015629,3,2,1,2,1,1,1
358,27824,35.52145,-76.03258000000002,Engelhard,NC,North Carolina,Hyde,279.58750000000003,1019.105,74.57,0.1875,37095,6,0.0,0.0,0.0,0.0,0.0,0.0,0.0,0.0,0,0,0,0,0,0,0
359,27825,35.83280999999999,-77.17446,Everetts,NC,North Carolina,Martin,279.20750000000004,1018.3375,77.4275,0.2325,37117,14,0.0,0.0,0.8134999871253971,15.769207954406701,64.83473968505861,18.2485961914063,0.333956390619278,18.5825519561768,3,2,1,2,1,1,1
360,27847,36.1846,-77.18907,Kelford,NC,North Carolina,Bertie,279.58750000000003,1019.105,74.57,0.1875,37015,17,0.0,0.0,1.07039999961853,14.090616226196301,57.0918083190918,25.4346942901611,2.3124809265136697,27.7471752166748,3,2,1,2,1,1,1
361,27909,36.29548,-76.28394,Elizabeth City,NC,North Carolina,Pasquotank,279.58750000000003,1019.105,74.57,0.1875,37139,5,0.0,0.0,0.0,0.0,0.0,0.0,0.6081225872039789,0.6081225872039789,0,0,0,0,0,0,0
362,27915,35.40320999999999,-75.4953,Avon,NC,North Carolina,Dare,279.845,1018.17,74.50999999999998,0.195,37055,0,0.0,0.0,0.0,0.0,0.0,0.0,0.0,0.0,0,0,0,0,0,0,0
363,27916,36.32212,-75.91509,Aydlett,NC,North Carolina,Currituck,279.845,1018.17,74.50999999999998,0.195,37053,7,39.0,0.0,0.8851000070571899,1.09899365901947,9.72732448577881,48.940242767334006,0.34833830595016496,49.2885818481445,3,2,1,2,1,1,1
364,27919,36.31187,-76.50347,Belvidere,NC,North Carolina,Perquimans,279.58750000000003,1019.105,74.57,0.1875,37143,8,0.0,0.0,0.0,0.0,0.0,0.0,0.0127626303583384,0.0127626303583384,0,0,0,0,0,0,0
365,27925,35.84819,-76.19669,Columbia,NC,North Carolina,Tyrrell,279.58750000000003,1019.105,74.57,0.1875,37177,6,1.0,0.0,0.0513999983668327,11.243927001953098,81.124267578125,6.437914371490481,0.1424909979105,6.58040523529053,2,1,1,1,1,1,1
366,27926,36.51685,-76.6078,Corapeake,NC,North Carolina,Gates,279.58750000000003,1019.105,74.57,0.1875,37073,17,0.0,0.0,0.9520999789237979,4.08875179290771,33.9024620056152,55.0172233581543,6.03946304321289,61.05668640136721,2,2,1,2,1,1,1
367,27932,36.1007,-76.60011999999998,Edenton,NC,North Carolina,Chowan,279.58750000000003,1019.105,74.57,0.1875,37041,14,11.0,0.0,1.02300000190735,15.674599647522,40.7641372680664,27.0212459564209,4.51701784133911,31.538263320922898,3,2,1,2,1,1,1
368,28001,35.33623,-80.20477,Albemarle,NC,North Carolina,Stanly,279.46000000000004,1019.4825,73.85,0.235,37167,155,0.0,0.0,1.18559992313385,8.44249057769775,86.6765975952148,2.85465049743652,0.8406609296798709,3.69531154632568,3,2,1,1,1,1,1
369,28006,35.4069,-81.09465,Alexis,NC,North Carolina,Gaston,279.46000000000004,1019.4825,73.85,0.235,37071,231,0.0,0.0,10.799599647522,3.4003515243530296,35.0365028381348,50.3605537414551,0.40299120545387296,50.763545989990206,3,2,1,1,1,1,1
370,28007,35.10451,-80.10989000000002,Ansonville,NC,North Carolina,Anson,279.46000000000004,1019.4825,73.85,0.235,37007,119,0.0,0.0,1.07269990444183,6.5411076545715305,69.0105743408203,22.903451919555696,0.47216528654098494,23.375617980957,3,2,1,1,1,1,1
371,28017,35.24709,-81.67063,Boiling Springs,NC,North Carolina,Cleveland,279.46000000000004,1019.4825,73.85,0.235,37045,255,0.0,0.0,3.15869998931885,7.73984432220459,41.2061309814453,47.475711822509794,0.419613510370255,47.8953247070313,3,2,1,1,1,1,1
372,28018,35.483779999999996,-81.79521,Bostic,NC,North Carolina,Rutherford,279.46000000000004,1019.4825,73.85,0.235,37161,291,0.0,0.0,5.0264000892639205,8.02316093444824,32.513336181640604,54.036617279052706,0.400484293699265,54.437103271484396,3,2,1,1,1,1,1
373,28025,35.38042,-80.5279,Concord,NC,North Carolina,Cabarrus,279.46000000000004,1019.4825,73.85,0.235,37025,195,0.0,0.0,2.05789995193481,6.46296262741089,73.03038024902341,18.116060256958,0.33269691467285195,18.4487571716309,3,2,1,1,1,1,1
374,28115,35.57956,-80.77328,Mooresville,NC,North Carolina,Iredell,279.46000000000004,1019.4825,73.85,0.235,37097,259,0.0,0.0,1.57910001277924,2.09384298324585,19.0249557495117,76.6962051391602,0.6058952808380129,77.3021011352539,3,2,1,1,1,1,1
375,28318,35.01788,-78.61414,Autryville,NC,North Carolina,Sampson,280.9525,1019.6075,74.97,0.1775,37163,46,0.0,0.0,1.09700000286102,4.13043975830078,40.2016487121582,50.595252990722706,3.97565793991089,54.5709114074707,3,2,1,2,1,1,1
376,28320,34.5518,-78.77337,Bladenboro,NC,North Carolina,Bladen,280.9525,1019.6075,74.97,0.1775,37017,20,0.0,0.0,0.531799972057343,6.686028957366941,71.81166076660159,19.6894207000732,1.28109002113342,20.970510482788104,3,2,1,2,1,1,1
377,28325,35.15392,-78.1042,Calypso,NC,North Carolina,Duplin,280.9525,1019.6075,74.97,0.1775,37061,17,0.0,0.0,0.621999979019165,9.99409198760986,82.1208953857422,4.36634063720703,2.89667201042175,7.2630124092102095,3,2,1,2,1,1,1
378,28340,34.471990000000005,-79.14074000000002,Fairmont,NC,North Carolina,Robeson,280.9525,1019.6075,74.97,0.1775,37155,45,0.0,0.0,1.73860001564026,2.1730115413665803,7.1798801422119105,87.92587280273442,0.982634782791138,88.90850830078129,1,1,1,3,1,1,1
379,28343,34.7635,-79.58189,Gibson,NC,North Carolina,Scotland,280.9525,1019.6075,74.97,0.1775,37165,70,0.0,0.0,1.67559993267059,0.8977090120315551,4.64194679260254,90.87783813476558,1.90690398216248,92.7847442626953,3,2,1,2,1,1,1
380,28376,34.9919,-79.24262,Raeford,NC,North Carolina,Hoke,280.9525,1019.6075,74.97,0.1775,37093,74,0.0,0.0,3.60309982299805,1.68624305725098,9.94863319396973,82.8142471313477,1.9477800130844098,84.76202392578129,3,2,1,2,1,1,1
381,28401,34.27257,-77.96332,Wilmington,NC,North Carolina,New Hanover,283.2775,1019.645,77.50999999999998,0.1325,37129,0,0.0,0.0,0.0,0.0,0.0,0.0,0.0,0.0,0,0,0,0,0,0,0
382,28421,34.52082,-78.17817,Atkinson,NC,North Carolina,Pender,283.2775,1019.645,77.50999999999998,0.1325,37141,9,0.97489994764328,0.0,1.6902999877929699,7.77640438079834,81.6388931274414,6.27739667892456,1.6421060562133798,7.91950273513794,3,2,1,2,1,1,1
383,28423,34.31178,-78.39381,Bolton,NC,North Carolina,Columbus,283.2775,1019.645,77.50999999999998,0.1325,37047,8,0.0,0.0,0.617500007152557,8.17224788665771,81.21649169921879,9.066633224487301,0.9271268248558041,9.99376010894775,3,2,1,3,1,1,1
384,28445,34.51045,-77.54669,Holly Ridge,NC,North Carolina,Onslow,283.2775,1019.645,77.50999999999998,0.1325,37133,8,0.0,0.0,0.315999984741211,7.44788455963135,80.9801559448242,11.235060691833501,0.0208992008119822,11.2559595108032,3,3,1,2,1,1,1
385,28501,35.24439,-77.5219,Kinston,NC,North Carolina,Lenoir,279.20750000000004,1018.3375,77.4275,0.2325,37107,22,0.0,0.0,0.931600034236908,9.23824214935303,62.487247467040994,26.2582168579102,1.0846940279007,27.3429107666016,3,2,1,2,1,1,1
386,28510,35.00388,-76.80688,Arapahoe,NC,North Carolina,Pamlico,283.2775,1019.645,77.50999999999998,0.1325,37137,4,0.0,0.0,0.0,0.0,0.0,0.0,0.17812579870224,0.17812579870224,0,0,0,0,0,0,0
387,28511,34.8996,-76.35195,Atlantic,NC,North Carolina,Carteret,283.2775,1019.645,77.50999999999998,0.1325,37031,1,0.0,0.0,0.0,0.0,0.0,0.0,0.0312159098684788,0.0312159098684788,0,0,0,0,0,0,0
388,28519,35.123740000000005,-77.02169,Bridgeton,NC,North Carolina,Craven,283.2775,1019.645,77.50999999999998,0.1325,37049,10,0.0,0.0,0.18559564650058702,9.47724723815918,89.9491806030273,0.362351626157761,0.0256251897662878,0.387976825237274,2,2,1,2,1,1,1
389,28573,34.9965,-77.19904,Pollocksville,NC,North Carolina,Jones,283.2775,1019.645,77.50999999999998,0.1325,37103,12,0.0,0.0,0.495699971914291,11.6297521591187,75.6921157836914,11.6547317504883,0.527700901031494,12.182432174682601,2,2,1,1,1,1,1
390,28601,35.772529999999996,-81.32634,Hickory,NC,North Carolina,Catawba,279.46000000000004,1019.4825,73.85,0.235,37035,280,0.0,0.0,3.8199999332427996,7.5342082977294895,12.9289875030518,75.2805404663086,0.43626740574836703,75.7168045043945,3,2,1,1,1,1,1
391,28604,36.1772,-81.8479,Banner Elk,NC,North Carolina,Watauga,279.46000000000004,1019.4825,73.85,0.235,37189,1063,0.0,0.0,1.03982818126678,26.8094825744629,59.9853096008301,12.033634185791,0.13174529373645802,12.165379524231,2,2,2,1,1,1,2
392,28606,36.05343,-81.31883,Boomer,NC,North Carolina,Wilkes,277.855,1019.3675,72.9025,0.355,37193,365,0.0,0.0,3.3863000869751,23.9763336181641,52.9422187805176,19.5015888214111,0.19355970621109,19.695148468017603,3,2,1,1,1,1,1
393,28611,36.01102,-81.73527,Collettsville,NC,North Carolina,Caldwell,279.46000000000004,1019.4825,73.85,0.235,37027,393,0.0,0.0,10.9689998626709,9.985517501831051,35.727851867675795,42.017822265625,1.29980897903442,43.317630767822294,3,3,1,1,1,1,1
394,28612,35.66086,-81.54008,Connelly Springs,NC,North Carolina,Burke,279.46000000000004,1019.4825,73.85,0.235,37023,399,0.0,0.0,0.6821594834327701,26.53857421875,60.798309326171896,11.8316974639893,0.149258702993393,11.9809560775757,3,2,1,1,1,1,1
395,28615,36.46267,-81.65856,Creston,NC,North Carolina,Ashe,277.855,1019.3675,72.9025,0.355,37009,948,0.0,0.0,1.0168491601943999,26.802169799804698,59.9689407348633,12.0303516387939,0.181688398122787,12.212039947509801,3,2,2,1,1,1,2
396,28616,36.02313,-81.92013,Crossnore,NC,North Carolina,Avery,279.46000000000004,1019.4825,73.85,0.235,37011,1130,0.0,0.0,0.358785480260849,26.96852684021,60.341156005859396,12.1050214767456,0.22651019692421,12.331531524658198,2,2,2,1,1,1,2
397,28636,35.94324,-81.06397,Hiddenite,NC,North Carolina,Alexander,277.855,1019.3675,72.9025,0.355,37003,335,1.9357999563217199,0.0,1.9922000169754,10.799539566039998,37.3546943664551,47.3929672241211,0.524799287319183,47.9177665710449,7,7,7,7,7,7,7
398,28701,35.70239,-82.64105,Alexander,NC,North Carolina,Buncombe,277.375,1020.0125,79.19749999999998,0.235,37021,775,0.0,0.0,3.46640014648438,25.7192649841309,57.3949851989746,12.083117485046401,1.3362309932708702,13.419348716735803,3,2,1,1,1,1,1
399,28702,35.39966,-83.62051,Almond,NC,North Carolina,Graham,277.375,1020.0125,79.19749999999998,0.235,37075,771,0.0,0.0,1.58222639560699,26.677978515625,59.6910743713379,11.974607467651401,0.0741126090288162,12.048720359802198,3,2,1,1,1,1,1
400,28705,36.04365,-82.15888000000002,Bakersville,NC,North Carolina,Mitchell,279.46000000000004,1019.4825,73.85,0.235,37121,873,0.0,0.0,0.983904600143433,26.7780590057373,59.91499328613279,12.019529342651401,0.303513497114182,12.3230428695679,2,2,2,1,1,1,2
401,28708,35.2714,-82.86267,Balsam Grove,NC,North Carolina,Transylvania,277.375,1020.0125,79.19749999999998,0.235,37175,785,0.0,0.0,1.4110919237136799,25.7896003723145,61.1846923828125,11.37877368927,0.235840499401093,11.6146144866943,3,2,2,1,1,1,2
402,28713,35.36935,-83.50254,Bryson City,NC,North Carolina,Swain,277.375,1020.0125,79.19749999999998,0.235,37173,1235,0.0,0.0,1.50518274307251,31.6874351501465,59.7297515869141,6.99020051956177,0.0874306634068489,7.077630996704099,3,2,1,1,1,1,1
403,28714,35.89376,-82.31145,Burnsville,NC,North Carolina,Yancey,277.375,1020.0125,79.19749999999998,0.235,37199,985,0.0,0.0,0.168281495571136,26.5179748535156,61.463283538818395,11.7821979522705,0.0682624503970146,11.850460052490199,2,1,3,1,1,1,3
404,28716,35.43589,-82.86109,Canton,NC,North Carolina,Haywood,277.375,1020.0125,79.19749999999998,0.235,37087,832,0.0,0.0,2.6053407192230202,26.354488372802702,58.9672698974609,11.8294057846069,0.243494793772697,12.0729007720947,2,2,2,1,1,1,2
405,28722,35.23413,-82.1247,Columbus,NC,North Carolina,Polk,279.46000000000004,1019.4825,73.85,0.235,37149,292,2.9444000720977797,0.0,2.0890998840332,7.186968803405759,61.128246307373,25.754854202270497,0.896431684494019,26.6512851715088,3,2,1,1,1,1,1
406,28726,35.28118,-82.4182,East Flat Rock,NC,North Carolina,Henderson,279.46000000000004,1019.4825,73.85,0.235,37089,669,0.0,0.0,1.02791011333466,24.5335159301758,63.289371490478494,10.5367298126221,0.612473011016846,11.1492023468018,3,2,2,1,1,1,2
407,28734,35.1828,-83.42108,Franklin,NC,North Carolina,Macon,277.375,1020.0125,79.19749999999998,0.235,37113,671,0.0,0.0,1.07781732082367,26.682680130004897,59.701595306396506,11.9767189025879,0.561188101768494,12.5379066467285,3,2,1,1,1,1,1
408,28901,35.19808,-83.81034,Andrews,NC,North Carolina,Cherokee,277.375,1020.0125,79.19749999999998,0.235,37039,563,0.0,0.0,1.53195369243622,26.1535625457764,60.6151123046875,11.6204843521118,0.0788878127932549,11.6993722915649,3,2,1,1,1,1,1
409,29001,33.7835,-80.17251999999998,Alcolu,SC,South Carolina,Clarendon,282.2125000000001,1019.7575,73.99,0.2125,45027,38,8.9355993270874,0.0,1.5022999048233,7.611413478851321,53.7576026916504,27.472242355346697,0.720842897891998,28.1930847167969,3,3,2,3,1,1,2
410,29003,33.240559999999995,-81.01545,Bamberg,SC,South Carolina,Bamberg,282.2125000000001,1019.7575,73.99,0.2125,45009,47,0.0,0.0,0.351500004529953,2.73767995834351,20.722244262695302,73.2339096069336,2.95466303825378,76.1885757446289,3,2,1,2,1,1,1
411,29006,33.870290000000004,-81.55054,Batesburg,SC,South Carolina,Lexington,282.2125000000001,1019.7575,73.99,0.2125,45063,109,1.96939992904663,19.6611003875732,2.05360007286072,19.694654464721697,3.40516209602356,48.74507141113279,4.47101306915283,53.2160835266113,2,2,1,1,1,1,1
412,29009,34.43983,-80.37879000000002,Bethune,SC,South Carolina,Kershaw,282.2125000000001,1019.7575,73.99,0.2125,45055,81,0.0,0.0,1.35269999504089,11.9285268783569,36.1595458984375,50.2790298461914,0.280197411775589,50.5592269897461,2,2,1,1,1,1,1
413,29016,34.20244,-80.99575,Blythewood,SC,South Carolina,Richland,282.2125000000001,1019.7575,73.99,0.2125,45079,84,0.0,0.0,1.43439996242523,6.420397281646731,41.2840003967285,49.6116333007813,1.24957001209259,50.861202239990206,2,2,1,1,1,1,1
414,29018,33.345240000000004,-80.64534,Bowman,SC,South Carolina,Orangeburg,282.2125000000001,1019.7575,73.99,0.2125,45075,54,0.0,0.0,0.8248000144958499,5.731802463531491,66.7410202026367,24.2807769775391,2.4216001033783,26.7023773193359,3,2,1,2,1,1,1
415,29037,34.18558,-81.86437,Chappells,SC,South Carolina,Newberry,282.2125000000001,1019.7575,73.99,0.2125,45071,163,19.725399017334002,0.0,1.27059996128082,6.90127944946289,70.6960830688477,1.04372715950012,0.36291131377220204,1.4066385030746498,3,3,1,1,1,1,1
416,29040,34.0593,-80.43427,Dalzell,SC,South Carolina,Sumter,282.2125000000001,1019.7575,73.99,0.2125,45085,52,0.0,0.0,1.88979995250702,1.1729408502578702,6.01592588424683,88.4339218139648,2.48741507530212,90.9213333129883,3,2,1,2,1,1,1
417,29069,34.1862,-80.09626999999998,Lamar,SC,South Carolina,Darlington,282.2125000000001,1019.7575,73.99,0.2125,45031,53,0.0,0.0,1.43639993667603,0.310154914855957,2.58816194534302,94.57901000976558,1.0862710475921602,95.665283203125,3,2,1,2,1,1,1
418,29082,33.037729999999996,-80.94174,Lodge,SC,South Carolina,Colleton,284.7150000000001,1019.8025,80.5475,0.16,45029,12,0.0,0.0,0.483999997377396,8.824930191040039,90.01956176757808,0.5883162021636961,0.0831922963261604,0.671508491039276,2,2,1,2,1,1,1
419,29105,33.80843,-81.59564,Monetta,SC,South Carolina,Aiken,282.2125000000001,1019.7575,73.99,0.2125,45003,137,6.95440006256104,0.0,0.48529997467994707,29.9903163909912,34.0106353759766,28.387716293335,0.17163190245628399,28.559349060058604,3,2,1,1,1,1,1
420,29114,33.9537,-79.93236999999998,Olanta,SC,South Carolina,Florence,282.2125000000001,1019.7575,73.99,0.2125,45041,23,0.0,0.0,1.66649985313416,5.44361877441406,9.61568832397461,82.7734680175781,0.500724792480469,83.2741928100586,2,2,1,2,1,1,1
421,29138,34.044540000000005,-81.77280999999998,Saluda,SC,South Carolina,Saluda,282.2125000000001,1019.7575,73.99,0.2125,45081,155,0.0,0.0,0.858000040054321,6.44987678527832,64.17905426025389,25.3109321594238,3.2021369934082,28.513069152832,3,2,1,1,1,1,1
