{"type":"FeatureCollection","features":[{"type":"Feature","properties":{"":0,"zip":1001,"city":"Agawam","state_id":"MA","state_name":"Massachusetts","county_name":"Hampden","Average Temperature (Kelvin)":270.80499999999995,"Average Air Pressure (hPa)":1016.1225,"Average Humidity (%)":72.215,"Average Daily Precipitation (mm)":0.125,"mer_success":0,"rose_success":0,"syr_success":0,"savyb_success":0,"ries_success":0,"cabsav_success":0,"char_success":0,"pinot_success":1},"geometry":{"type":"Point","coordinates":[-72.62589,42.06259]}},{"type":"Feature","properties":{"":1,"zip":1002,"city":"Amherst","state_id":"MA","state_name":"Massachusetts","county_name":"Hampshire","Average Temperature (Kelvin)":270.80499999999995,"Average Air Pressure (hPa)":1016.1225,"Average Humidity (%)":72.215,"Average Daily Precipitation (mm)":0.125,"mer_success":0,"rose_success":0,"syr_success":0,"savyb_success":0,"ries_success":0,"cabsav_success":0,"char_success":0,"pinot_success":1},"geometry":{"type":"Point","coordinates":[-72.4621,42.37492]}},{"type":"Feature","properties":{"":2,"zip":1005,"city":"Barre","state_id":"MA","state_name":"Massachusetts","county_name":"Worcester","Average Temperature (Kelvin)":270.725,"Average Air Pressure (hPa)":1014.96,"Average Humidity (%)":71.7525,"Average Daily Precipitation (mm)":0.135,"mer_success":0,"rose_success":0,"syr_success":0,"savyb_success":0,"ries_success":0,"cabsav_success":0,"char_success":0,"pinot_success":1},"geometry":{"type":"Point","coordinates":[-72.10615,42.42017]}},{"type":"Feature","properties":{"":3,"zip":1029,"city":"East Otis","state_id":"MA","state_name":"Massachusetts","county_name":"Berkshire","Average Temperature (Kelvin)":270.80499999999995,"Average Air Pressure (hPa)":1016.1225,"Average Humidity (%)":72.215,"Average Daily Precipitation (mm)":0.125,"mer_success":0,"rose_success":0,"syr_success":0,"savyb_success":0,"ries_success":0,"cabsav_success":0,"char_success":0,"pinot_success":1},"geometry":{"type":"Point","coordinates":[-73.04836,42.19632]}},{"type":"Feature","properties":{"":4,"zip":1054,"city":"Leverett","state_id":"MA","state_name":"Massachusetts","county_name":"Franklin","Average Temperature (Kelvin)":270.80499999999995,"Average Air Pressure (hPa)":1016.1225,"Average Humidity (%)":72.215,"Average Daily Precipitation (mm)":0.125,"mer_success":0,"rose_success":0,"syr_success":0,"savyb_success":0,"ries_success":0,"cabsav_success":0,"char_success":0,"pinot_success":1},"geometry":{"type":"Point","coordinates":[-72.48746,42.47363]}},{"type":"Feature","properties":{"":5,"zip":1431,"city":"Ashby","state_id":"MA","state_name":"Massachusetts","county_name":"Middlesex","Average Temperature (Kelvin)":270.665,"Average Air Pressure (hPa)":1016.715,"Average Humidity (%)":69.785,"Average Daily Precipitation (mm)":0.1325,"mer_success":0,"rose_success":0,"syr_success":0,"savyb_success":0,"ries_success":0,"cabsav_success":0,"char_success":0,"pinot_success":1},"geometry":{"type":"Point","coordinates":[-71.82321999999998,42.676520000000004]}},{"type":"Feature","properties":{"":6,"zip":1810,"city":"Andover","state_id":"MA","state_name":"Massachusetts","county_name":"Essex","Average Temperature (Kelvin)":270.665,"Average Air Pressure (hPa)":1016.715,"Average Humidity (%)":69.785,"Average Daily Precipitation (mm)":0.1325,"mer_success":0,"rose_success":0,"syr_success":0,"savyb_success":0,"ries_success":0,"cabsav_success":0,"char_success":0,"pinot_success":1},"geometry":{"type":"Point","coordinates":[-71.16505,42.64655]}},{"type":"Feature","properties":{"":7,"zip":2019,"city":"Bellingham","state_id":"MA","state_name":"Massachusetts","county_name":"Norfolk","Average Temperature (Kelvin)":272.165,"Average Air Pressure (hPa)":1016.14,"Average Humidity (%)":71.2475,"Average Daily Precipitation (mm)":0.135,"mer_success":0,"rose_success":1,"syr_success":0,"savyb_success":0,"ries_success":1,"cabsav_success":0,"char_success":0,"pinot_success":0},"geometry":{"type":"Point","coordinates":[-71.47409,42.07774000000001]}},{"type":"Feature","properties":{"":8,"zip":2043,"city":"Hingham","state_id":"MA","state_name":"Massachusetts","county_name":"Plymouth","Average Temperature (Kelvin)":271.775,"Average Air Pressure (hPa)":1016.035,"Average Humidity (%)":69.2525,"Average Daily Precipitation (mm)":0.135,"mer_success":0,"rose_success":0,"syr_success":0,"savyb_success":0,"ries_success":0,"cabsav_success":0,"char_success":0,"pinot_success":1},"geometry":{"type":"Point","coordinates":[-70.88499,42.21678]}},{"type":"Feature","properties":{"":9,"zip":2048,"city":"Mansfield","state_id":"MA","state_name":"Massachusetts","county_name":"Bristol","Average Temperature (Kelvin)":272.165,"Average Air Pressure (hPa)":1016.14,"Average Humidity (%)":71.2475,"Average Daily Precipitation (mm)":0.135,"mer_success":0,"rose_success":1,"syr_success":0,"savyb_success":0,"ries_success":1,"cabsav_success":0,"char_success":0,"pinot_success":0},"geometry":{"type":"Point","coordinates":[-71.21868,42.016259999999996]}},{"type":"Feature","properties":{"":10,"zip":2108,"city":"Boston","state_id":"MA","state_name":"Massachusetts","county_name":"Suffolk","Average Temperature (Kelvin)":271.7475,"Average Air Pressure (hPa)":1016.0925,"Average Humidity (%)":69.655,"Average Daily Precipitation (mm)":0.135,"mer_success":0,"rose_success":0,"syr_success":0,"savyb_success":0,"ries_success":0,"cabsav_success":0,"char_success":0,"pinot_success":1},"geometry":{"type":"Point","coordinates":[-71.06505,42.35767]}},{"type":"Feature","properties":{"":11,"zip":2532,"city":"Buzzards Bay","state_id":"MA","state_name":"Massachusetts","county_name":"Barnstable","Average Temperature (Kelvin)":272.165,"Average Air Pressure (hPa)":1016.14,"Average Humidity (%)":71.2475,"Average Daily Precipitation (mm)":0.135,"mer_success":0,"rose_success":1,"syr_success":0,"savyb_success":0,"ries_success":1,"cabsav_success":0,"char_success":0,"pinot_success":0},"geometry":{"type":"Point","coordinates":[-70.59728,41.75162]}},{"type":"Feature","properties":{"":12,"zip":2535,"city":"Chilmark","state_id":"MA","state_name":"Massachusetts","county_name":"Dukes","Average Temperature (Kelvin)":272.165,"Average Air Pressure (hPa)":1016.14,"Average Humidity (%)":71.2475,"Average Daily Precipitation (mm)":0.135,"mer_success":0,"rose_success":1,"syr_success":0,"savyb_success":0,"ries_success":1,"cabsav_success":0,"char_success":0,"pinot_success":0},"geometry":{"type":"Point","coordinates":[-70.74629,41.34896]}},{"type":"Feature","properties":{"":13,"zip":2554,"city":"Nantucket","state_id":"MA","state_name":"Massachusetts","county_name":"Nantucket","Average Temperature (Kelvin)":272.165,"Average Air Pressure (hPa)":1016.14,"Average Humidity (%)":71.2475,"Average Daily Precipitation (mm)":0.135,"mer_success":0,"rose_success":1,"syr_success":0,"savyb_success":0,"ries_success":1,"cabsav_success":0,"char_success":0,"pinot_success":0},"geometry":{"type":"Point","coordinates":[-70.07982,41.285379999999996]}},{"type":"Feature","properties":{"":14,"zip":2802,"city":"Albion","state_id":"RI","state_name":"Rhode Island","county_name":"Providence","Average Temperature (Kelvin)":272.165,"Average Air Pressure (hPa)":1016.14,"Average Humidity (%)":71.2475,"Average Daily Precipitation (mm)":0.135,"mer_success":0,"rose_success":1,"syr_success":0,"savyb_success":0,"ries_success":1,"cabsav_success":0,"char_success":0,"pinot_success":0},"geometry":{"type":"Point","coordinates":[-71.45534,41.95195]}},{"type":"Feature","properties":{"":15,"zip":2804,"city":"Ashaway","state_id":"RI","state_name":"Rhode Island","county_name":"Washington","Average Temperature (Kelvin)":272.165,"Average Air Pressure (hPa)":1016.14,"Average Humidity (%)":71.2475,"Average Daily Precipitation (mm)":0.135,"mer_success":0,"rose_success":1,"syr_success":0,"savyb_success":0,"ries_success":1,"cabsav_success":0,"char_success":0,"pinot_success":0},"geometry":{"type":"Point","coordinates":[-71.77235999999998,41.43188]}},{"type":"Feature","properties":{"":16,"zip":2816,"city":"Coventry","state_id":"RI","state_name":"Rhode Island","county_name":"Kent","Average Temperature (Kelvin)":272.165,"Average Air Pressure (hPa)":1016.14,"Average Humidity (%)":71.2475,"Average Daily Precipitation (mm)":0.135,"mer_success":0,"rose_success":1,"syr_success":0,"savyb_success":0,"ries_success":1,"cabsav_success":0,"char_success":0,"pinot_success":0},"geometry":{"type":"Point","coordinates":[-71.61976999999997,41.69086]}},{"type":"Feature","properties":{"":17,"zip":2835,"city":"Jamestown","state_id":"RI","state_name":"Rhode Island","county_name":"Newport","Average Temperature (Kelvin)":272.165,"Average Air Pressure (hPa)":1016.14,"Average Humidity (%)":71.2475,"Average Daily Precipitation (mm)":0.135,"mer_success":0,"rose_success":1,"syr_success":0,"savyb_success":0,"ries_success":1,"cabsav_success":0,"char_success":0,"pinot_success":0},"geometry":{"type":"Point","coordinates":[-71.3771,41.51497]}},{"type":"Feature","properties":{"":18,"zip":3031,"city":"Amherst","state_id":"NH","state_name":"New Hampshire","county_name":"Hillsborough","Average Temperature (Kelvin)":269.73749999999995,"Average Air Pressure (hPa)":1015.325,"Average Humidity (%)":69.2625,"Average Daily Precipitation (mm)":0.0975,"mer_success":0,"rose_success":0,"syr_success":0,"savyb_success":0,"ries_success":0,"cabsav_success":0,"char_success":0,"pinot_success":0},"geometry":{"type":"Point","coordinates":[-71.6079,42.87036]}},{"type":"Feature","properties":{"":19,"zip":3032,"city":"Auburn","state_id":"NH","state_name":"New Hampshire","county_name":"Rockingham","Average Temperature (Kelvin)":269.73749999999995,"Average Air Pressure (hPa)":1015.325,"Average Humidity (%)":69.2625,"Average Daily Precipitation (mm)":0.0975,"mer_success":0,"rose_success":0,"syr_success":0,"savyb_success":0,"ries_success":0,"cabsav_success":0,"char_success":0,"pinot_success":0},"geometry":{"type":"Point","coordinates":[-71.34379,42.9906]}},{"type":"Feature","properties":{"":20,"zip":3046,"city":"Dunbarton","state_id":"NH","state_name":"New Hampshire","county_name":"Merrimack","Average Temperature (Kelvin)":269.73749999999995,"Average Air Pressure (hPa)":1015.325,"Average Humidity (%)":69.2625,"Average Daily Precipitation (mm)":0.0975,"mer_success":0,"rose_success":0,"syr_success":0,"savyb_success":0,"ries_success":0,"cabsav_success":0,"char_success":0,"pinot_success":0},"geometry":{"type":"Point","coordinates":[-71.60561,43.10184]}},{"type":"Feature","properties":{"":21,"zip":3215,"city":"Waterville Valley","state_id":"NH","state_name":"New Hampshire","county_name":"Grafton","Average Temperature (Kelvin)":269.73749999999995,"Average Air Pressure (hPa)":1015.325,"Average Humidity (%)":69.2625,"Average Daily Precipitation (mm)":0.0975,"mer_success":0,"rose_success":0,"syr_success":0,"savyb_success":0,"ries_success":0,"cabsav_success":0,"char_success":0,"pinot_success":0},"geometry":{"type":"Point","coordinates":[-71.45281999999997,43.9453]}},{"type":"Feature","properties":{"":22,"zip":3218,"city":"Barnstead","state_id":"NH","state_name":"New Hampshire","county_name":"Belknap","Average Temperature (Kelvin)":269.73749999999995,"Average Air Pressure (hPa)":1015.325,"Average Humidity (%)":69.2625,"Average Daily Precipitation (mm)":0.0975,"mer_success":0,"rose_success":0,"syr_success":0,"savyb_success":0,"ries_success":0,"cabsav_success":0,"char_success":0,"pinot_success":0},"geometry":{"type":"Point","coordinates":[-71.28921,43.33463]}},{"type":"Feature","properties":{"":23,"zip":3227,"city":"Center Sandwich","state_id":"NH","state_name":"New Hampshire","county_name":"Carroll","Average Temperature (Kelvin)":269.73749999999995,"Average Air Pressure (hPa)":1015.325,"Average Humidity (%)":69.2625,"Average Daily Precipitation (mm)":0.0975,"mer_success":0,"rose_success":0,"syr_success":0,"savyb_success":0,"ries_success":0,"cabsav_success":0,"char_success":0,"pinot_success":0},"geometry":{"type":"Point","coordinates":[-71.4678,43.82774000000001]}},{"type":"Feature","properties":{"":24,"zip":3280,"city":"Washington","state_id":"NH","state_name":"New Hampshire","county_name":"Sullivan","Average Temperature (Kelvin)":269.73749999999995,"Average Air Pressure (hPa)":1015.325,"Average Humidity (%)":69.2625,"Average Daily Precipitation (mm)":0.0975,"mer_success":0,"rose_success":0,"syr_success":0,"savyb_success":0,"ries_success":0,"cabsav_success":0,"char_success":0,"pinot_success":0},"geometry":{"type":"Point","coordinates":[-72.08925,43.18298]}},{"type":"Feature","properties":{"":25,"zip":3431,"city":"Keene","state_id":"NH","state_name":"New Hampshire","county_name":"Cheshire","Average Temperature (Kelvin)":269.73749999999995,"Average Air Pressure (hPa)":1015.325,"Average Humidity (%)":69.2625,"Average Daily Precipitation (mm)":0.0975,"mer_success":0,"rose_success":0,"syr_success":0,"savyb_success":0,"ries_success":0,"cabsav_success":0,"char_success":0,"pinot_success":0},"geometry":{"type":"Point","coordinates":[-72.29556,42.96265]}},{"type":"Feature","properties":{"":26,"zip":3570,"city":"Berlin","state_id":"NH","state_name":"New Hampshire","county_name":"Coos","Average Temperature (Kelvin)":266.0575,"Average Air Pressure (hPa)":1011.095,"Average Humidity (%)":80.585,"Average Daily Precipitation (mm)":0.02,"mer_success":0,"rose_success":0,"syr_success":0,"savyb_success":0,"ries_success":0,"cabsav_success":0,"char_success":0,"pinot_success":0},"geometry":{"type":"Point","coordinates":[-71.15716,44.49905]}},{"type":"Feature","properties":{"":27,"zip":3820,"city":"Dover","state_id":"NH","state_name":"New Hampshire","county_name":"Strafford","Average Temperature (Kelvin)":269.73749999999995,"Average Air Pressure (hPa)":1015.325,"Average Humidity (%)":69.2625,"Average Daily Precipitation (mm)":0.0975,"mer_success":0,"rose_success":0,"syr_success":0,"savyb_success":0,"ries_success":0,"cabsav_success":1,"char_success":0,"pinot_success":0},"geometry":{"type":"Point","coordinates":[-70.88678,43.188790000000004]}},{"type":"Feature","properties":{"":28,"zip":3901,"city":"Berwick","state_id":"ME","state_name":"Maine","county_name":"York","Average Temperature (Kelvin)":269.73749999999995,"Average Air Pressure (hPa)":1015.325,"Average Humidity (%)":69.2625,"Average Daily Precipitation (mm)":0.0975,"mer_success":0,"rose_success":0,"syr_success":0,"savyb_success":0,"ries_success":0,"cabsav_success":1,"char_success":0,"pinot_success":0},"geometry":{"type":"Point","coordinates":[-70.84329,43.30056]}},{"type":"Feature","properties":{"":29,"zip":4003,"city":"Bailey Island","state_id":"ME","state_name":"Maine","county_name":"Cumberland","Average Temperature (Kelvin)":269.73749999999995,"Average Air Pressure (hPa)":1015.325,"Average Humidity (%)":69.2625,"Average Daily Precipitation (mm)":0.0975,"mer_success":0,"rose_success":0,"syr_success":0,"savyb_success":0,"ries_success":0,"cabsav_success":0,"char_success":0,"pinot_success":0},"geometry":{"type":"Point","coordinates":[-69.98824,43.73158]}},{"type":"Feature","properties":{"":30,"zip":4008,"city":"Bowdoinham","state_id":"ME","state_name":"Maine","county_name":"Sagadahoc","Average Temperature (Kelvin)":269.73749999999995,"Average Air Pressure (hPa)":1015.325,"Average Humidity (%)":69.2625,"Average Daily Precipitation (mm)":0.0975,"mer_success":0,"rose_success":0,"syr_success":0,"savyb_success":0,"ries_success":0,"cabsav_success":0,"char_success":0,"pinot_success":0},"geometry":{"type":"Point","coordinates":[-69.86206999999999,44.03716]}},{"type":"Feature","properties":{"":31,"zip":4010,"city":"Brownfield","state_id":"ME","state_name":"Maine","county_name":"Oxford","Average Temperature (Kelvin)":269.73749999999995,"Average Air Pressure (hPa)":1015.325,"Average Humidity (%)":69.2625,"Average Daily Precipitation (mm)":0.0975,"mer_success":0,"rose_success":0,"syr_success":0,"savyb_success":0,"ries_success":0,"cabsav_success":0,"char_success":0,"pinot_success":0},"geometry":{"type":"Point","coordinates":[-70.91671,43.93305]}},{"type":"Feature","properties":{"":32,"zip":4210,"city":"Auburn","state_id":"ME","state_name":"Maine","county_name":"Androscoggin","Average Temperature (Kelvin)":269.73749999999995,"Average Air Pressure (hPa)":1015.325,"Average Humidity (%)":69.2625,"Average Daily Precipitation (mm)":0.0975,"mer_success":0,"rose_success":0,"syr_success":0,"savyb_success":0,"ries_success":0,"cabsav_success":0,"char_success":0,"pinot_success":0},"geometry":{"type":"Point","coordinates":[-70.24922,44.0849]}},{"type":"Feature","properties":{"":33,"zip":4259,"city":"Monmouth","state_id":"ME","state_name":"Maine","county_name":"Kennebec","Average Temperature (Kelvin)":269.73749999999995,"Average Air Pressure (hPa)":1015.325,"Average Humidity (%)":69.2625,"Average Daily Precipitation (mm)":0.0975,"mer_success":0,"rose_success":0,"syr_success":0,"savyb_success":0,"ries_success":0,"cabsav_success":0,"char_success":0,"pinot_success":0},"geometry":{"type":"Point","coordinates":[-70.00856,44.228359999999995]}},{"type":"Feature","properties":{"":34,"zip":4342,"city":"Dresden","state_id":"ME","state_name":"Maine","county_name":"Lincoln","Average Temperature (Kelvin)":269.73749999999995,"Average Air Pressure (hPa)":1015.325,"Average Humidity (%)":69.2625,"Average Daily Precipitation (mm)":0.0975,"mer_success":0,"rose_success":0,"syr_success":0,"savyb_success":0,"ries_success":0,"cabsav_success":0,"char_success":0,"pinot_success":0},"geometry":{"type":"Point","coordinates":[-69.73938000000001,44.07942]}},{"type":"Feature","properties":{"":35,"zip":4354,"city":"Palermo","state_id":"ME","state_name":"Maine","county_name":"Waldo","Average Temperature (Kelvin)":266.0575,"Average Air Pressure (hPa)":1011.095,"Average Humidity (%)":80.585,"Average Daily Precipitation (mm)":0.02,"mer_success":0,"rose_success":0,"syr_success":0,"savyb_success":0,"ries_success":0,"cabsav_success":0,"char_success":0,"pinot_success":0},"geometry":{"type":"Point","coordinates":[-69.42707,44.396029999999996]}},{"type":"Feature","properties":{"":36,"zip":4401,"city":"Bangor","state_id":"ME","state_name":"Maine","county_name":"Penobscot","Average Temperature (Kelvin)":266.0575,"Average Air Pressure (hPa)":1011.095,"Average Humidity (%)":80.585,"Average Daily Precipitation (mm)":0.02,"mer_success":0,"rose_success":0,"syr_success":0,"savyb_success":0,"ries_success":0,"cabsav_success":0,"char_success":0,"pinot_success":0},"geometry":{"type":"Point","coordinates":[-68.84479,44.84923]}},{"type":"Feature","properties":{"":37,"zip":4406,"city":"Abbot","state_id":"ME","state_name":"Maine","county_name":"Piscataquis","Average Temperature (Kelvin)":266.0575,"Average Air Pressure (hPa)":1011.095,"Average Humidity (%)":80.585,"Average Daily Precipitation (mm)":0.02,"mer_success":0,"rose_success":0,"syr_success":0,"savyb_success":0,"ries_success":0,"cabsav_success":0,"char_success":0,"pinot_success":0},"geometry":{"type":"Point","coordinates":[-69.56989,45.23454]}},{"type":"Feature","properties":{"":38,"zip":4408,"city":"Aurora","state_id":"ME","state_name":"Maine","county_name":"Hancock","Average Temperature (Kelvin)":266.0575,"Average Air Pressure (hPa)":1011.095,"Average Humidity (%)":80.585,"Average Daily Precipitation (mm)":0.02,"mer_success":0,"rose_success":0,"syr_success":0,"savyb_success":0,"ries_success":0,"cabsav_success":0,"char_success":0,"pinot_success":0},"geometry":{"type":"Point","coordinates":[-68.23071999999999,44.99135]}},{"type":"Feature","properties":{"":39,"zip":4471,"city":"Orient","state_id":"ME","state_name":"Maine","county_name":"Aroostook","Average Temperature (Kelvin)":263.44,"Average Air Pressure (hPa)":1011.92,"Average Humidity (%)":79.365,"Average Daily Precipitation (mm)":0.037500000000000006,"mer_success":0,"rose_success":0,"syr_success":0,"savyb_success":0,"ries_success":0,"cabsav_success":0,"char_success":0,"pinot_success":1},"geometry":{"type":"Point","coordinates":[-67.84714,45.89108]}},{"type":"Feature","properties":{"":40,"zip":4478,"city":"Rockwood","state_id":"ME","state_name":"Maine","county_name":"Somerset","Average Temperature (Kelvin)":263.44,"Average Air Pressure (hPa)":1011.92,"Average Humidity (%)":79.365,"Average Daily Precipitation (mm)":0.037500000000000006,"mer_success":0,"rose_success":0,"syr_success":0,"savyb_success":0,"ries_success":0,"cabsav_success":0,"char_success":0,"pinot_success":1},"geometry":{"type":"Point","coordinates":[-69.87680999999999,45.86407]}},{"type":"Feature","properties":{"":41,"zip":4547,"city":"Friendship","state_id":"ME","state_name":"Maine","county_name":"Knox","Average Temperature (Kelvin)":269.73749999999995,"Average Air Pressure (hPa)":1015.325,"Average Humidity (%)":69.2625,"Average Daily Precipitation (mm)":0.0975,"mer_success":0,"rose_success":0,"syr_success":0,"savyb_success":0,"ries_success":0,"cabsav_success":0,"char_success":0,"pinot_success":0},"geometry":{"type":"Point","coordinates":[-69.32779000000001,43.99388]}},{"type":"Feature","properties":{"":42,"zip":5001,"city":"White River Junction","state_id":"VT","state_name":"Vermont","county_name":"Windsor","Average Temperature (Kelvin)":269.73749999999995,"Average Air Pressure (hPa)":1015.325,"Average Humidity (%)":69.2625,"Average Daily Precipitation (mm)":0.0975,"mer_success":0,"rose_success":0,"syr_success":0,"savyb_success":0,"ries_success":0,"cabsav_success":0,"char_success":0,"pinot_success":0},"geometry":{"type":"Point","coordinates":[-72.38133,43.67222]}},{"type":"Feature","properties":{"":43,"zip":5033,"city":"Bradford","state_id":"VT","state_name":"Vermont","county_name":"Orange","Average Temperature (Kelvin)":269.73749999999995,"Average Air Pressure (hPa)":1015.325,"Average Humidity (%)":69.2625,"Average Daily Precipitation (mm)":0.0975,"mer_success":0,"rose_success":0,"syr_success":0,"savyb_success":0,"ries_success":0,"cabsav_success":0,"char_success":0,"pinot_success":0},"geometry":{"type":"Point","coordinates":[-72.15799,44.00888]}},{"type":"Feature","properties":{"":44,"zip":5042,"city":"East Ryegate","state_id":"VT","state_name":"Vermont","county_name":"Caledonia","Average Temperature (Kelvin)":266.0575,"Average Air Pressure (hPa)":1011.095,"Average Humidity (%)":80.585,"Average Daily Precipitation (mm)":0.02,"mer_success":0,"rose_success":0,"syr_success":0,"savyb_success":0,"ries_success":0,"cabsav_success":0,"char_success":0,"pinot_success":0},"geometry":{"type":"Point","coordinates":[-72.09962,44.22756]}},{"type":"Feature","properties":{"":45,"zip":5101,"city":"Bellows Falls","state_id":"VT","state_name":"Vermont","county_name":"Windham","Average Temperature (Kelvin)":269.73749999999995,"Average Air Pressure (hPa)":1015.325,"Average Humidity (%)":69.2625,"Average Daily Precipitation (mm)":0.0975,"mer_success":0,"rose_success":0,"syr_success":0,"savyb_success":0,"ries_success":0,"cabsav_success":0,"char_success":0,"pinot_success":0},"geometry":{"type":"Point","coordinates":[-72.49454,43.17899]}},{"type":"Feature","properties":{"":46,"zip":5152,"city":"Peru","state_id":"VT","state_name":"Vermont","county_name":"Bennington","Average Temperature (Kelvin)":269.73749999999995,"Average Air Pressure (hPa)":1015.325,"Average Humidity (%)":69.2625,"Average Daily Precipitation (mm)":0.0975,"mer_success":0,"rose_success":0,"syr_success":0,"savyb_success":0,"ries_success":0,"cabsav_success":0,"char_success":0,"pinot_success":0},"geometry":{"type":"Point","coordinates":[-72.9153,43.25358]}},{"type":"Feature","properties":{"":47,"zip":5401,"city":"Burlington","state_id":"VT","state_name":"Vermont","county_name":"Chittenden","Average Temperature (Kelvin)":266.29,"Average Air Pressure (hPa)":1015.5625,"Average Humidity (%)":78.6725,"Average Daily Precipitation (mm)":0.06000000000000001,"mer_success":0,"rose_success":0,"syr_success":0,"savyb_success":0,"ries_success":0,"cabsav_success":1,"char_success":0,"pinot_success":1},"geometry":{"type":"Point","coordinates":[-73.20997,44.47629000000001]}},{"type":"Feature","properties":{"":48,"zip":5440,"city":"Alburgh","state_id":"VT","state_name":"Vermont","county_name":"Grand Isle","Average Temperature (Kelvin)":266.29,"Average Air Pressure (hPa)":1015.5625,"Average Humidity (%)":78.6725,"Average Daily Precipitation (mm)":0.06000000000000001,"mer_success":0,"rose_success":0,"syr_success":0,"savyb_success":0,"ries_success":0,"cabsav_success":0,"char_success":0,"pinot_success":1},"geometry":{"type":"Point","coordinates":[-73.27951999999998,44.95953]}},{"type":"Feature","properties":{"":49,"zip":5442,"city":"Belvidere Center","state_id":"VT","state_name":"Vermont","county_name":"Lamoille","Average Temperature (Kelvin)":266.0575,"Average Air Pressure (hPa)":1011.095,"Average Humidity (%)":80.585,"Average Daily Precipitation (mm)":0.02,"mer_success":0,"rose_success":0,"syr_success":0,"savyb_success":0,"ries_success":0,"cabsav_success":0,"char_success":0,"pinot_success":0},"geometry":{"type":"Point","coordinates":[-72.67678000000002,44.75855]}},{"type":"Feature","properties":{"":50,"zip":5443,"city":"Bristol","state_id":"VT","state_name":"Vermont","county_name":"Addison","Average Temperature (Kelvin)":266.29,"Average Air Pressure (hPa)":1015.5625,"Average Humidity (%)":78.6725,"Average Daily Precipitation (mm)":0.06000000000000001,"mer_success":0,"rose_success":0,"syr_success":0,"savyb_success":0,"ries_success":0,"cabsav_success":1,"char_success":0,"pinot_success":1},"geometry":{"type":"Point","coordinates":[-73.03668,44.13347]}},{"type":"Feature","properties":{"":51,"zip":5701,"city":"Rutland","state_id":"VT","state_name":"Vermont","county_name":"Rutland","Average Temperature (Kelvin)":269.73749999999995,"Average Air Pressure (hPa)":1015.325,"Average Humidity (%)":69.2625,"Average Daily Precipitation (mm)":0.0975,"mer_success":0,"rose_success":0,"syr_success":0,"savyb_success":0,"ries_success":0,"cabsav_success":0,"char_success":0,"pinot_success":0},"geometry":{"type":"Point","coordinates":[-72.90981,43.62458]}},{"type":"Feature","properties":{"":52,"zip":5820,"city":"Albany","state_id":"VT","state_name":"Vermont","county_name":"Orleans","Average Temperature (Kelvin)":266.0575,"Average Air Pressure (hPa)":1011.095,"Average Humidity (%)":80.585,"Average Daily Precipitation (mm)":0.02,"mer_success":0,"rose_success":0,"syr_success":0,"savyb_success":0,"ries_success":0,"cabsav_success":0,"char_success":0,"pinot_success":0},"geometry":{"type":"Point","coordinates":[-72.34482,44.73871]}},{"type":"Feature","properties":{"":53,"zip":6001,"city":"Avon","state_id":"CT","state_name":"Connecticut","county_name":"Hartford","Average Temperature (Kelvin)":271.45750000000004,"Average Air Pressure (hPa)":1016.4925,"Average Humidity (%)":68.815,"Average Daily Precipitation (mm)":0.125,"mer_success":0,"rose_success":0,"syr_success":0,"savyb_success":0,"ries_success":0,"cabsav_success":0,"char_success":0,"pinot_success":0},"geometry":{"type":"Point","coordinates":[-72.85385,41.7907]}},{"type":"Feature","properties":{"":54,"zip":6018,"city":"Canaan","state_id":"CT","state_name":"Connecticut","county_name":"Litchfield","Average Temperature (Kelvin)":271.985,"Average Air Pressure (hPa)":1015.955,"Average Humidity (%)":70.4275,"Average Daily Precipitation (mm)":0.14,"mer_success":0,"rose_success":0,"syr_success":0,"savyb_success":0,"ries_success":0,"cabsav_success":1,"char_success":0,"pinot_success":0},"geometry":{"type":"Point","coordinates":[-73.30872,42.02648]}},{"type":"Feature","properties":{"":55,"zip":6029,"city":"Ellington","state_id":"CT","state_name":"Connecticut","county_name":"Tolland","Average Temperature (Kelvin)":270.80499999999995,"Average Air Pressure (hPa)":1016.1225,"Average Humidity (%)":72.215,"Average Daily Precipitation (mm)":0.125,"mer_success":0,"rose_success":0,"syr_success":0,"savyb_success":0,"ries_success":0,"cabsav_success":0,"char_success":0,"pinot_success":1},"geometry":{"type":"Point","coordinates":[-72.44946999999998,41.91503]}},{"type":"Feature","properties":{"":56,"zip":6249,"city":"Lebanon","state_id":"CT","state_name":"Connecticut","county_name":"New London","Average Temperature (Kelvin)":271.45750000000004,"Average Air Pressure (hPa)":1016.4925,"Average Humidity (%)":68.815,"Average Daily Precipitation (mm)":0.125,"mer_success":0,"rose_success":0,"syr_success":0,"savyb_success":0,"ries_success":0,"cabsav_success":0,"char_success":0,"pinot_success":0},"geometry":{"type":"Point","coordinates":[-72.2402,41.63128]}},{"type":"Feature","properties":{"":57,"zip":6401,"city":"Ansonia","state_id":"CT","state_name":"Connecticut","county_name":"New Haven","Average Temperature (Kelvin)":272.74749999999995,"Average Air Pressure (hPa)":1016.8375,"Average Humidity (%)":70.14250000000001,"Average Daily Precipitation (mm)":0.14,"mer_success":0,"rose_success":0,"syr_success":0,"savyb_success":0,"ries_success":0,"cabsav_success":0,"char_success":0,"pinot_success":0},"geometry":{"type":"Point","coordinates":[-73.0689,41.34424]}},{"type":"Feature","properties":{"":58,"zip":6468,"city":"Monroe","state_id":"CT","state_name":"Connecticut","county_name":"Fairfield","Average Temperature (Kelvin)":273.0875,"Average Air Pressure (hPa)":1016.075,"Average Humidity (%)":68.92750000000001,"Average Daily Precipitation (mm)":0.14750000000000002,"mer_success":0,"rose_success":0,"syr_success":0,"savyb_success":0,"ries_success":0,"cabsav_success":0,"char_success":0,"pinot_success":0},"geometry":{"type":"Point","coordinates":[-73.22506,41.33786]}},{"type":"Feature","properties":{"":59,"zip":7002,"city":"Bayonne","state_id":"NJ","state_name":"New Jersey","county_name":"Hudson","Average Temperature (Kelvin)":274.0175,"Average Air Pressure (hPa)":1017.425,"Average Humidity (%)":68.3475,"Average Daily Precipitation (mm)":0.15000000000000002,"mer_success":0,"rose_success":0,"syr_success":0,"savyb_success":0,"ries_success":0,"cabsav_success":0,"char_success":0,"pinot_success":0},"geometry":{"type":"Point","coordinates":[-74.10866999999998,40.66464000000001]}},{"type":"Feature","properties":{"":60,"zip":7005,"city":"Boonton","state_id":"NJ","state_name":"New Jersey","county_name":"Morris","Average Temperature (Kelvin)":273.39250000000004,"Average Air Pressure (hPa)":1015.7975,"Average Humidity (%)":70.15,"Average Daily Precipitation (mm)":0.14750000000000002,"mer_success":0,"rose_success":0,"syr_success":0,"savyb_success":0,"ries_success":0,"cabsav_success":0,"char_success":0,"pinot_success":0},"geometry":{"type":"Point","coordinates":[-74.421,40.92947]}},{"type":"Feature","properties":{"":61,"zip":7010,"city":"Cliffside Park","state_id":"NJ","state_name":"New Jersey","county_name":"Bergen","Average Temperature (Kelvin)":273.9575,"Average Air Pressure (hPa)":1017.45,"Average Humidity (%)":67.8775,"Average Daily Precipitation (mm)":0.14750000000000002,"mer_success":0,"rose_success":0,"syr_success":0,"savyb_success":0,"ries_success":0,"cabsav_success":0,"char_success":0,"pinot_success":0},"geometry":{"type":"Point","coordinates":[-73.98794000000002,40.822109999999995]}},{"type":"Feature","properties":{"":62,"zip":7011,"city":"Clifton","state_id":"NJ","state_name":"New Jersey","county_name":"Passaic","Average Temperature (Kelvin)":273.39250000000004,"Average Air Pressure (hPa)":1015.7975,"Average Humidity (%)":70.15,"Average Daily Precipitation (mm)":0.14750000000000002,"mer_success":0,"rose_success":0,"syr_success":0,"savyb_success":0,"ries_success":0,"cabsav_success":0,"char_success":0,"pinot_success":0},"geometry":{"type":"Point","coordinates":[-74.14478000000003,40.878479999999996]}},{"type":"Feature","properties":{"":63,"zip":7016,"city":"Cranford","state_id":"NJ","state_name":"New Jersey","county_name":"Union","Average Temperature (Kelvin)":273.8575,"Average Air Pressure (hPa)":1017.0775,"Average Humidity (%)":67.77250000000001,"Average Daily Precipitation (mm)":0.15000000000000002,"mer_success":0,"rose_success":0,"syr_success":0,"savyb_success":0,"ries_success":0,"cabsav_success":0,"char_success":0,"pinot_success":0},"geometry":{"type":"Point","coordinates":[-74.30357,40.65643]}},{"type":"Feature","properties":{"":64,"zip":7416,"city":"Franklin","state_id":"NJ","state_name":"New Jersey","county_name":"Sussex","Average Temperature (Kelvin)":273.39250000000004,"Average Air Pressure (hPa)":1015.7975,"Average Humidity (%)":70.15,"Average Daily Precipitation (mm)":0.14750000000000002,"mer_success":0,"rose_success":0,"syr_success":0,"savyb_success":0,"ries_success":0,"cabsav_success":0,"char_success":0,"pinot_success":0},"geometry":{"type":"Point","coordinates":[-74.59775,41.11589]}},{"type":"Feature","properties":{"":65,"zip":7701,"city":"Red Bank","state_id":"NJ","state_name":"New Jersey","county_name":"Monmouth","Average Temperature (Kelvin)":273.805,"Average Air Pressure (hPa)":1017.4075,"Average Humidity (%)":69.49000000000001,"Average Daily Precipitation (mm)":0.155,"mer_success":0,"rose_success":0,"syr_success":0,"savyb_success":0,"ries_success":0,"cabsav_success":1,"char_success":0,"pinot_success":0},"geometry":{"type":"Point","coordinates":[-74.07745,40.36144]}},{"type":"Feature","properties":{"":66,"zip":7820,"city":"Allamuchy","state_id":"NJ","state_name":"New Jersey","county_name":"Warren","Average Temperature (Kelvin)":273.39250000000004,"Average Air Pressure (hPa)":1015.7975,"Average Humidity (%)":70.15,"Average Daily Precipitation (mm)":0.14750000000000002,"mer_success":0,"rose_success":0,"syr_success":0,"savyb_success":0,"ries_success":0,"cabsav_success":0,"char_success":0,"pinot_success":0},"geometry":{"type":"Point","coordinates":[-74.81142,40.92708]}},{"type":"Feature","properties":{"":67,"zip":7830,"city":"Califon","state_id":"NJ","state_name":"New Jersey","county_name":"Hunterdon","Average Temperature (Kelvin)":273.805,"Average Air Pressure (hPa)":1017.4075,"Average Humidity (%)":69.49000000000001,"Average Daily Precipitation (mm)":0.155,"mer_success":0,"rose_success":0,"syr_success":0,"savyb_success":0,"ries_success":0,"cabsav_success":1,"char_success":0,"pinot_success":0},"geometry":{"type":"Point","coordinates":[-74.80747,40.72104]}},{"type":"Feature","properties":{"":68,"zip":8001,"city":"Alloway","state_id":"NJ","state_name":"New Jersey","county_name":"Salem","Average Temperature (Kelvin)":274.0775,"Average Air Pressure (hPa)":1018.5825,"Average Humidity (%)":70.28750000000001,"Average Daily Precipitation (mm)":0.15,"mer_success":0,"rose_success":0,"syr_success":0,"savyb_success":0,"ries_success":0,"cabsav_success":0,"char_success":0,"pinot_success":0},"geometry":{"type":"Point","coordinates":[-75.34976999999998,39.55073]}},{"type":"Feature","properties":{"":69,"zip":8002,"city":"Cherry Hill","state_id":"NJ","state_name":"New Jersey","county_name":"Camden","Average Temperature (Kelvin)":274.0775,"Average Air Pressure (hPa)":1018.5825,"Average Humidity (%)":70.28750000000001,"Average Daily Precipitation (mm)":0.15,"mer_success":0,"rose_success":0,"syr_success":0,"savyb_success":0,"ries_success":0,"cabsav_success":0,"char_success":0,"pinot_success":0},"geometry":{"type":"Point","coordinates":[-75.02539,39.931329999999996]}},{"type":"Feature","properties":{"":70,"zip":8005,"city":"Barnegat","state_id":"NJ","state_name":"New Jersey","county_name":"Ocean","Average Temperature (Kelvin)":274.0775,"Average Air Pressure (hPa)":1018.5825,"Average Humidity (%)":70.28750000000001,"Average Daily Precipitation (mm)":0.15,"mer_success":0,"rose_success":0,"syr_success":0,"savyb_success":0,"ries_success":0,"cabsav_success":0,"char_success":0,"pinot_success":0},"geometry":{"type":"Point","coordinates":[-74.3153,39.763659999999994]}},{"type":"Feature","properties":{"":71,"zip":8010,"city":"Beverly","state_id":"NJ","state_name":"New Jersey","county_name":"Burlington","Average Temperature (Kelvin)":274.0775,"Average Air Pressure (hPa)":1018.5825,"Average Humidity (%)":70.28750000000001,"Average Daily Precipitation (mm)":0.15,"mer_success":0,"rose_success":0,"syr_success":0,"savyb_success":0,"ries_success":0,"cabsav_success":0,"char_success":0,"pinot_success":0},"geometry":{"type":"Point","coordinates":[-74.91419,40.053329999999995]}},{"type":"Feature","properties":{"":72,"zip":8014,"city":"Bridgeport","state_id":"NJ","state_name":"New Jersey","county_name":"Gloucester","Average Temperature (Kelvin)":274.0775,"Average Air Pressure (hPa)":1018.5825,"Average Humidity (%)":70.28750000000001,"Average Daily Precipitation (mm)":0.15,"mer_success":0,"rose_success":0,"syr_success":0,"savyb_success":0,"ries_success":0,"cabsav_success":0,"char_success":0,"pinot_success":0},"geometry":{"type":"Point","coordinates":[-75.35809,39.81795]}},{"type":"Feature","properties":{"":73,"zip":8037,"city":"Hammonton","state_id":"NJ","state_name":"New Jersey","county_name":"Atlantic","Average Temperature (Kelvin)":274.0775,"Average Air Pressure (hPa)":1018.5825,"Average Humidity (%)":70.28750000000001,"Average Daily Precipitation (mm)":0.15,"mer_success":0,"rose_success":0,"syr_success":0,"savyb_success":0,"ries_success":0,"cabsav_success":0,"char_success":0,"pinot_success":0},"geometry":{"type":"Point","coordinates":[-74.77275,39.63800000000001]}},{"type":"Feature","properties":{"":74,"zip":8202,"city":"Avalon","state_id":"NJ","state_name":"New Jersey","county_name":"Cape May","Average Temperature (Kelvin)":274.0775,"Average Air Pressure (hPa)":1018.5825,"Average Humidity (%)":70.28750000000001,"Average Daily Precipitation (mm)":0.15,"mer_success":0,"rose_success":0,"syr_success":0,"savyb_success":0,"ries_success":0,"cabsav_success":0,"char_success":0,"pinot_success":0},"geometry":{"type":"Point","coordinates":[-74.73873,39.10018]}},{"type":"Feature","properties":{"":75,"zip":8512,"city":"Cranbury","state_id":"NJ","state_name":"New Jersey","county_name":"Mercer","Average Temperature (Kelvin)":273.805,"Average Air Pressure (hPa)":1017.4075,"Average Humidity (%)":69.49000000000001,"Average Daily Precipitation (mm)":0.155,"mer_success":0,"rose_success":0,"syr_success":0,"savyb_success":0,"ries_success":0,"cabsav_success":1,"char_success":0,"pinot_success":0},"geometry":{"type":"Point","coordinates":[-74.52660999999998,40.32022]}},{"type":"Feature","properties":{"":76,"zip":10001,"city":"New York","state_id":"NY","state_name":"New York","county_name":"New York","Average Temperature (Kelvin)":273.7775,"Average Air Pressure (hPa)":1017.2825,"Average Humidity (%)":66.38,"Average Daily Precipitation (mm)":0.1125,"mer_success":0,"rose_success":0,"syr_success":0,"savyb_success":0,"ries_success":0,"cabsav_success":0,"char_success":1,"pinot_success":0},"geometry":{"type":"Point","coordinates":[-73.99718,40.75065]}},{"type":"Feature","properties":{"":77,"zip":10301,"city":"Staten Island","state_id":"NY","state_name":"New York","county_name":"Richmond","Average Temperature (Kelvin)":273.8575,"Average Air Pressure (hPa)":1017.0775,"Average Humidity (%)":67.77250000000001,"Average Daily Precipitation (mm)":0.15000000000000002,"mer_success":0,"rose_success":0,"syr_success":0,"savyb_success":0,"ries_success":0,"cabsav_success":0,"char_success":0,"pinot_success":0},"geometry":{"type":"Point","coordinates":[-74.0962,40.62846]}},{"type":"Feature","properties":{"":78,"zip":10451,"city":"Bronx","state_id":"NY","state_name":"New York","county_name":"Bronx","Average Temperature (Kelvin)":273.9575,"Average Air Pressure (hPa)":1017.45,"Average Humidity (%)":67.8775,"Average Daily Precipitation (mm)":0.14750000000000002,"mer_success":0,"rose_success":0,"syr_success":0,"savyb_success":0,"ries_success":0,"cabsav_success":0,"char_success":0,"pinot_success":0},"geometry":{"type":"Point","coordinates":[-73.92387,40.82077]}},{"type":"Feature","properties":{"":79,"zip":10501,"city":"Amawalk","state_id":"NY","state_name":"New York","county_name":"Westchester","Average Temperature (Kelvin)":273.055,"Average Air Pressure (hPa)":1016.655,"Average Humidity (%)":70.35,"Average Daily Precipitation (mm)":0.135,"mer_success":0,"rose_success":0,"syr_success":0,"savyb_success":0,"ries_success":0,"cabsav_success":0,"char_success":0,"pinot_success":0},"geometry":{"type":"Point","coordinates":[-73.76075,41.29448]}},{"type":"Feature","properties":{"":80,"zip":10509,"city":"Brewster","state_id":"NY","state_name":"New York","county_name":"Putnam","Average Temperature (Kelvin)":273.055,"Average Air Pressure (hPa)":1016.655,"Average Humidity (%)":70.35,"Average Daily Precipitation (mm)":0.135,"mer_success":0,"rose_success":0,"syr_success":0,"savyb_success":0,"ries_success":0,"cabsav_success":0,"char_success":0,"pinot_success":0},"geometry":{"type":"Point","coordinates":[-73.59437,41.41174]}},{"type":"Feature","properties":{"":81,"zip":10901,"city":"Suffern","state_id":"NY","state_name":"New York","county_name":"Rockland","Average Temperature (Kelvin)":273.39250000000004,"Average Air Pressure (hPa)":1015.7975,"Average Humidity (%)":70.15,"Average Daily Precipitation (mm)":0.14750000000000002,"mer_success":0,"rose_success":0,"syr_success":0,"savyb_success":0,"ries_success":0,"cabsav_success":0,"char_success":0,"pinot_success":0},"geometry":{"type":"Point","coordinates":[-74.11615,41.13876]}},{"type":"Feature","properties":{"":82,"zip":11001,"city":"Floral Park","state_id":"NY","state_name":"New York","county_name":"Nassau","Average Temperature (Kelvin)":274.2525,"Average Air Pressure (hPa)":1017.13,"Average Humidity (%)":70.66,"Average Daily Precipitation (mm)":0.14500000000000002,"mer_success":0,"rose_success":0,"syr_success":0,"savyb_success":0,"ries_success":0,"cabsav_success":0,"char_success":0,"pinot_success":0},"geometry":{"type":"Point","coordinates":[-73.70456999999998,40.72353]}},{"type":"Feature","properties":{"":83,"zip":11004,"city":"Glen Oaks","state_id":"NY","state_name":"New York","county_name":"Queens","Average Temperature (Kelvin)":274.2525,"Average Air Pressure (hPa)":1017.13,"Average Humidity (%)":70.66,"Average Daily Precipitation (mm)":0.14500000000000002,"mer_success":0,"rose_success":0,"syr_success":0,"savyb_success":0,"ries_success":0,"cabsav_success":0,"char_success":0,"pinot_success":0},"geometry":{"type":"Point","coordinates":[-73.71148000000002,40.74628]}},{"type":"Feature","properties":{"":84,"zip":11201,"city":"Brooklyn","state_id":"NY","state_name":"New York","county_name":"Kings","Average Temperature (Kelvin)":273.7775,"Average Air Pressure (hPa)":1017.2825,"Average Humidity (%)":66.38,"Average Daily Precipitation (mm)":0.1125,"mer_success":0,"rose_success":0,"syr_success":0,"savyb_success":0,"ries_success":0,"cabsav_success":0,"char_success":0,"pinot_success":0},"geometry":{"type":"Point","coordinates":[-73.98971999999998,40.69463]}},{"type":"Feature","properties":{"":85,"zip":12007,"city":"Alcove","state_id":"NY","state_name":"New York","county_name":"Albany","Average Temperature (Kelvin)":270.80499999999995,"Average Air Pressure (hPa)":1016.1225,"Average Humidity (%)":72.215,"Average Daily Precipitation (mm)":0.125,"mer_success":0,"rose_success":0,"syr_success":0,"savyb_success":0,"ries_success":0,"cabsav_success":0,"char_success":0,"pinot_success":1},"geometry":{"type":"Point","coordinates":[-73.92765,42.45616]}},{"type":"Feature","properties":{"":86,"zip":12008,"city":"Alplaus","state_id":"NY","state_name":"New York","county_name":"Schenectady","Average Temperature (Kelvin)":270.80499999999995,"Average Air Pressure (hPa)":1016.1225,"Average Humidity (%)":72.215,"Average Daily Precipitation (mm)":0.125,"mer_success":0,"rose_success":0,"syr_success":0,"savyb_success":0,"ries_success":0,"cabsav_success":0,"char_success":0,"pinot_success":1},"geometry":{"type":"Point","coordinates":[-73.90799,42.85301]}},{"type":"Feature","properties":{"":87,"zip":12010,"city":"Amsterdam","state_id":"NY","state_name":"New York","county_name":"Montgomery","Average Temperature (Kelvin)":270.80499999999995,"Average Air Pressure (hPa)":1016.1225,"Average Humidity (%)":72.215,"Average Daily Precipitation (mm)":0.125,"mer_success":0,"rose_success":0,"syr_success":0,"savyb_success":0,"ries_success":0,"cabsav_success":0,"char_success":0,"pinot_success":1},"geometry":{"type":"Point","coordinates":[-74.17385999999998,42.93797]}},{"type":"Feature","properties":{"":88,"zip":12015,"city":"Athens","state_id":"NY","state_name":"New York","county_name":"Greene","Average Temperature (Kelvin)":271.985,"Average Air Pressure (hPa)":1015.955,"Average Humidity (%)":70.4275,"Average Daily Precipitation (mm)":0.14,"mer_success":0,"rose_success":0,"syr_success":0,"savyb_success":0,"ries_success":0,"cabsav_success":1,"char_success":0,"pinot_success":0},"geometry":{"type":"Point","coordinates":[-73.8272,42.28262]}},{"type":"Feature","properties":{"":89,"zip":12017,"city":"Austerlitz","state_id":"NY","state_name":"New York","county_name":"Columbia","Average Temperature (Kelvin)":270.80499999999995,"Average Air Pressure (hPa)":1016.1225,"Average Humidity (%)":72.215,"Average Daily Precipitation (mm)":0.125,"mer_success":0,"rose_success":0,"syr_success":0,"savyb_success":0,"ries_success":0,"cabsav_success":0,"char_success":0,"pinot_success":1},"geometry":{"type":"Point","coordinates":[-73.46216,42.32118]}},{"type":"Feature","properties":{"":90,"zip":12018,"city":"Averill Park","state_id":"NY","state_name":"New York","county_name":"Rensselaer","Average Temperature (Kelvin)":270.80499999999995,"Average Air Pressure (hPa)":1016.1225,"Average Humidity (%)":72.215,"Average Daily Precipitation (mm)":0.125,"mer_success":0,"rose_success":0,"syr_success":0,"savyb_success":0,"ries_success":0,"cabsav_success":0,"char_success":0,"pinot_success":1},"geometry":{"type":"Point","coordinates":[-73.52591,42.62952]}},{"type":"Feature","properties":{"":91,"zip":12019,"city":"Ballston Lake","state_id":"NY","state_name":"New York","county_name":"Saratoga","Average Temperature (Kelvin)":270.80499999999995,"Average Air Pressure (hPa)":1016.1225,"Average Humidity (%)":72.215,"Average Daily Precipitation (mm)":0.125,"mer_success":0,"rose_success":0,"syr_success":0,"savyb_success":0,"ries_success":0,"cabsav_success":0,"char_success":0,"pinot_success":1},"geometry":{"type":"Point","coordinates":[-73.88635,42.93075]}},{"type":"Feature","properties":{"":92,"zip":12025,"city":"Broadalbin","state_id":"NY","state_name":"New York","county_name":"Fulton","Average Temperature (Kelvin)":269.9725,"Average Air Pressure (hPa)":1015.9375,"Average Humidity (%)":78.4025,"Average Daily Precipitation (mm)":0.105,"mer_success":0,"rose_success":0,"syr_success":0,"savyb_success":0,"ries_success":0,"cabsav_success":1,"char_success":0,"pinot_success":0},"geometry":{"type":"Point","coordinates":[-74.13600000000002,43.0833]}},{"type":"Feature","properties":{"":93,"zip":12031,"city":"Carlisle","state_id":"NY","state_name":"New York","county_name":"Schoharie","Average Temperature (Kelvin)":269.9725,"Average Air Pressure (hPa)":1015.9375,"Average Humidity (%)":78.4025,"Average Daily Precipitation (mm)":0.105,"mer_success":0,"rose_success":0,"syr_success":0,"savyb_success":0,"ries_success":0,"cabsav_success":0,"char_success":0,"pinot_success":0},"geometry":{"type":"Point","coordinates":[-74.4569,42.76477]}},{"type":"Feature","properties":{"":94,"zip":12064,"city":"East Worcester","state_id":"NY","state_name":"New York","county_name":"Otsego","Average Temperature (Kelvin)":269.9725,"Average Air Pressure (hPa)":1015.9375,"Average Humidity (%)":78.4025,"Average Daily Precipitation (mm)":0.105,"mer_success":0,"rose_success":0,"syr_success":0,"savyb_success":0,"ries_success":0,"cabsav_success":0,"char_success":0,"pinot_success":0},"geometry":{"type":"Point","coordinates":[-74.65729,42.61434000000001]}},{"type":"Feature","properties":{"":95,"zip":12108,"city":"Lake Pleasant","state_id":"NY","state_name":"New York","county_name":"Hamilton","Average Temperature (Kelvin)":269.9725,"Average Air Pressure (hPa)":1015.9375,"Average Humidity (%)":78.4025,"Average Daily Precipitation (mm)":0.105,"mer_success":0,"rose_success":0,"syr_success":0,"savyb_success":0,"ries_success":0,"cabsav_success":0,"char_success":0,"pinot_success":0},"geometry":{"type":"Point","coordinates":[-74.44934,43.57407]}},{"type":"Feature","properties":{"":96,"zip":12167,"city":"Stamford","state_id":"NY","state_name":"New York","county_name":"Delaware","Average Temperature (Kelvin)":269.9725,"Average Air Pressure (hPa)":1015.9375,"Average Humidity (%)":78.4025,"Average Daily Precipitation (mm)":0.105,"mer_success":0,"rose_success":0,"syr_success":0,"savyb_success":0,"ries_success":0,"cabsav_success":1,"char_success":0,"pinot_success":0},"geometry":{"type":"Point","coordinates":[-74.58407,42.420759999999994]}},{"type":"Feature","properties":{"":97,"zip":12401,"city":"Kingston","state_id":"NY","state_name":"New York","county_name":"Ulster","Average Temperature (Kelvin)":271.985,"Average Air Pressure (hPa)":1015.955,"Average Humidity (%)":70.4275,"Average Daily Precipitation (mm)":0.14,"mer_success":0,"rose_success":0,"syr_success":0,"savyb_success":0,"ries_success":0,"cabsav_success":1,"char_success":0,"pinot_success":0},"geometry":{"type":"Point","coordinates":[-74.05278,41.93558]}},{"type":"Feature","properties":{"":98,"zip":12501,"city":"Amenia","state_id":"NY","state_name":"New York","county_name":"Dutchess","Average Temperature (Kelvin)":271.985,"Average Air Pressure (hPa)":1015.955,"Average Humidity (%)":70.4275,"Average Daily Precipitation (mm)":0.14,"mer_success":0,"rose_success":0,"syr_success":0,"savyb_success":0,"ries_success":0,"cabsav_success":1,"char_success":0,"pinot_success":0},"geometry":{"type":"Point","coordinates":[-73.55856999999997,41.85964]}},{"type":"Feature","properties":{"":99,"zip":12901,"city":"Plattsburgh","state_id":"NY","state_name":"New York","county_name":"Clinton","Average Temperature (Kelvin)":266.29,"Average Air Pressure (hPa)":1015.5625,"Average Humidity (%)":78.6725,"Average Daily Precipitation (mm)":0.06000000000000001,"mer_success":0,"rose_success":0,"syr_success":0,"savyb_success":0,"ries_success":0,"cabsav_success":1,"char_success":0,"pinot_success":1},"geometry":{"type":"Point","coordinates":[-73.47381999999998,44.70382]}},{"type":"Feature","properties":{"":100,"zip":12922,"city":"Childwold","state_id":"NY","state_name":"New York","county_name":"St. Lawrence","Average Temperature (Kelvin)":270.2325,"Average Air Pressure (hPa)":1015.06,"Average Humidity (%)":78.1,"Average Daily Precipitation (mm)":0.08249999999999999,"mer_success":0,"rose_success":0,"syr_success":0,"savyb_success":0,"ries_success":0,"cabsav_success":1,"char_success":0,"pinot_success":0},"geometry":{"type":"Point","coordinates":[-74.71793000000002,44.28808]}},{"type":"Feature","properties":{"":101,"zip":13020,"city":"Apulia Station","state_id":"NY","state_name":"New York","county_name":"Onondaga","Average Temperature (Kelvin)":269.9725,"Average Air Pressure (hPa)":1015.9375,"Average Humidity (%)":78.4025,"Average Daily Precipitation (mm)":0.105,"mer_success":0,"rose_success":0,"syr_success":0,"savyb_success":0,"ries_success":0,"cabsav_success":0,"char_success":0,"pinot_success":0},"geometry":{"type":"Point","coordinates":[-76.07455,42.81647]}},{"type":"Feature","properties":{"":102,"zip":13021,"city":"Auburn","state_id":"NY","state_name":"New York","county_name":"Cayuga","Average Temperature (Kelvin)":269.9725,"Average Air Pressure (hPa)":1015.9375,"Average Humidity (%)":78.4025,"Average Daily Precipitation (mm)":0.105,"mer_success":0,"rose_success":0,"syr_success":0,"savyb_success":0,"ries_success":0,"cabsav_success":0,"char_success":0,"pinot_success":0},"geometry":{"type":"Point","coordinates":[-76.55886,42.923790000000004]}},{"type":"Feature","properties":{"":103,"zip":13028,"city":"Bernhards Bay","state_id":"NY","state_name":"New York","county_name":"Oswego","Average Temperature (Kelvin)":269.9725,"Average Air Pressure (hPa)":1015.9375,"Average Humidity (%)":78.4025,"Average Daily Precipitation (mm)":0.105,"mer_success":0,"rose_success":0,"syr_success":0,"savyb_success":0,"ries_success":0,"cabsav_success":0,"char_success":0,"pinot_success":0},"geometry":{"type":"Point","coordinates":[-75.93471,43.2969]}},{"type":"Feature","properties":{"":104,"zip":13030,"city":"Bridgeport","state_id":"NY","state_name":"New York","county_name":"Madison","Average Temperature (Kelvin)":269.9725,"Average Air Pressure (hPa)":1015.9375,"Average Humidity (%)":78.4025,"Average Daily Precipitation (mm)":0.105,"mer_success":0,"rose_success":0,"syr_success":0,"savyb_success":0,"ries_success":0,"cabsav_success":1,"char_success":0,"pinot_success":0},"geometry":{"type":"Point","coordinates":[-75.96070999999998,43.15504]}},{"type":"Feature","properties":{"":105,"zip":13040,"city":"Cincinnatus","state_id":"NY","state_name":"New York","county_name":"Cortland","Average Temperature (Kelvin)":269.9725,"Average Air Pressure (hPa)":1015.9375,"Average Humidity (%)":78.4025,"Average Daily Precipitation (mm)":0.105,"mer_success":0,"rose_success":0,"syr_success":0,"savyb_success":0,"ries_success":0,"cabsav_success":0,"char_success":0,"pinot_success":0},"geometry":{"type":"Point","coordinates":[-75.93225,42.56139]}},{"type":"Feature","properties":{"":106,"zip":13053,"city":"Dryden","state_id":"NY","state_name":"New York","county_name":"Tompkins","Average Temperature (Kelvin)":269.9725,"Average Air Pressure (hPa)":1015.9375,"Average Humidity (%)":78.4025,"Average Daily Precipitation (mm)":0.105,"mer_success":0,"rose_success":0,"syr_success":0,"savyb_success":0,"ries_success":0,"cabsav_success":0,"char_success":0,"pinot_success":0},"geometry":{"type":"Point","coordinates":[-76.26598,42.47462]}},{"type":"Feature","properties":{"":107,"zip":13054,"city":"Durhamville","state_id":"NY","state_name":"New York","county_name":"Oneida","Average Temperature (Kelvin)":269.9725,"Average Air Pressure (hPa)":1015.9375,"Average Humidity (%)":78.4025,"Average Daily Precipitation (mm)":0.105,"mer_success":0,"rose_success":0,"syr_success":0,"savyb_success":0,"ries_success":0,"cabsav_success":1,"char_success":0,"pinot_success":0},"geometry":{"type":"Point","coordinates":[-75.67213000000002,43.17083]}},{"type":"Feature","properties":{"":108,"zip":13124,"city":"North Pitcher","state_id":"NY","state_name":"New York","county_name":"Chenango","Average Temperature (Kelvin)":269.9725,"Average Air Pressure (hPa)":1015.9375,"Average Humidity (%)":78.4025,"Average Daily Precipitation (mm)":0.105,"mer_success":0,"rose_success":0,"syr_success":0,"savyb_success":0,"ries_success":0,"cabsav_success":0,"char_success":0,"pinot_success":0},"geometry":{"type":"Point","coordinates":[-75.81796,42.64605]}},{"type":"Feature","properties":{"":109,"zip":13143,"city":"Red Creek","state_id":"NY","state_name":"New York","county_name":"Wayne","Average Temperature (Kelvin)":269.9725,"Average Air Pressure (hPa)":1015.9375,"Average Humidity (%)":78.4025,"Average Daily Precipitation (mm)":0.105,"mer_success":0,"rose_success":0,"syr_success":0,"savyb_success":0,"ries_success":0,"cabsav_success":1,"char_success":0,"pinot_success":0},"geometry":{"type":"Point","coordinates":[-76.71529,43.233259999999994]}},{"type":"Feature","properties":{"":110,"zip":13148,"city":"Seneca Falls","state_id":"NY","state_name":"New York","county_name":"Seneca","Average Temperature (Kelvin)":269.9725,"Average Air Pressure (hPa)":1015.9375,"Average Humidity (%)":78.4025,"Average Daily Precipitation (mm)":0.105,"mer_success":0,"rose_success":0,"syr_success":0,"savyb_success":0,"ries_success":0,"cabsav_success":0,"char_success":0,"pinot_success":0},"geometry":{"type":"Point","coordinates":[-76.7847,42.91464000000001]}},{"type":"Feature","properties":{"":111,"zip":13305,"city":"Beaver Falls","state_id":"NY","state_name":"New York","county_name":"Lewis","Average Temperature (Kelvin)":270.2325,"Average Air Pressure (hPa)":1015.06,"Average Humidity (%)":78.1,"Average Daily Precipitation (mm)":0.08249999999999999,"mer_success":0,"rose_success":0,"syr_success":0,"savyb_success":0,"ries_success":0,"cabsav_success":1,"char_success":0,"pinot_success":0},"geometry":{"type":"Point","coordinates":[-75.42124,43.89223]}},{"type":"Feature","properties":{"":112,"zip":13324,"city":"Cold Brook","state_id":"NY","state_name":"New York","county_name":"Herkimer","Average Temperature (Kelvin)":269.9725,"Average Air Pressure (hPa)":1015.9375,"Average Humidity (%)":78.4025,"Average Daily Precipitation (mm)":0.105,"mer_success":0,"rose_success":0,"syr_success":0,"savyb_success":0,"ries_success":0,"cabsav_success":0,"char_success":0,"pinot_success":0},"geometry":{"type":"Point","coordinates":[-74.95408,43.326209999999996]}},{"type":"Feature","properties":{"":113,"zip":13601,"city":"Watertown","state_id":"NY","state_name":"New York","county_name":"Jefferson","Average Temperature (Kelvin)":270.2325,"Average Air Pressure (hPa)":1015.06,"Average Humidity (%)":78.1,"Average Daily Precipitation (mm)":0.08249999999999999,"mer_success":0,"rose_success":0,"syr_success":0,"savyb_success":0,"ries_success":0,"cabsav_success":1,"char_success":0,"pinot_success":0},"geometry":{"type":"Point","coordinates":[-75.90673000000002,43.968379999999996]}},{"type":"Feature","properties":{"":114,"zip":13732,"city":"Apalachin","state_id":"NY","state_name":"New York","county_name":"Tioga","Average Temperature (Kelvin)":269.9725,"Average Air Pressure (hPa)":1015.9375,"Average Humidity (%)":78.4025,"Average Daily Precipitation (mm)":0.105,"mer_success":0,"rose_success":0,"syr_success":0,"savyb_success":0,"ries_success":0,"cabsav_success":1,"char_success":0,"pinot_success":0},"geometry":{"type":"Point","coordinates":[-76.168,42.044129999999996]}},{"type":"Feature","properties":{"":115,"zip":13744,"city":"Castle Creek","state_id":"NY","state_name":"New York","county_name":"Broome","Average Temperature (Kelvin)":269.9725,"Average Air Pressure (hPa)":1015.9375,"Average Humidity (%)":78.4025,"Average Daily Precipitation (mm)":0.105,"mer_success":0,"rose_success":0,"syr_success":0,"savyb_success":0,"ries_success":0,"cabsav_success":1,"char_success":0,"pinot_success":0},"geometry":{"type":"Point","coordinates":[-75.90912,42.23865]}},{"type":"Feature","properties":{"":116,"zip":14001,"city":"Akron","state_id":"NY","state_name":"New York","county_name":"Erie","Average Temperature (Kelvin)":271.1175,"Average Air Pressure (hPa)":1015.855,"Average Humidity (%)":75.9225,"Average Daily Precipitation (mm)":0.095,"mer_success":0,"rose_success":0,"syr_success":0,"savyb_success":0,"ries_success":0,"cabsav_success":0,"char_success":0,"pinot_success":0},"geometry":{"type":"Point","coordinates":[-78.51205,43.032959999999996]}},{"type":"Feature","properties":{"":117,"zip":14005,"city":"Alexander","state_id":"NY","state_name":"New York","county_name":"Genesee","Average Temperature (Kelvin)":271.1175,"Average Air Pressure (hPa)":1015.855,"Average Humidity (%)":75.9225,"Average Daily Precipitation (mm)":0.095,"mer_success":0,"rose_success":0,"syr_success":0,"savyb_success":0,"ries_success":0,"cabsav_success":0,"char_success":0,"pinot_success":0},"geometry":{"type":"Point","coordinates":[-78.2503,42.916940000000004]}},{"type":"Feature","properties":{"":118,"zip":14008,"city":"Appleton","state_id":"NY","state_name":"New York","county_name":"Niagara","Average Temperature (Kelvin)":271.1175,"Average Air Pressure (hPa)":1015.855,"Average Humidity (%)":75.9225,"Average Daily Precipitation (mm)":0.095,"mer_success":0,"rose_success":0,"syr_success":0,"savyb_success":0,"ries_success":0,"cabsav_success":0,"char_success":0,"pinot_success":0},"geometry":{"type":"Point","coordinates":[-78.62669,43.31174]}},{"type":"Feature","properties":{"":119,"zip":14009,"city":"Arcade","state_id":"NY","state_name":"New York","county_name":"Wyoming","Average Temperature (Kelvin)":271.1175,"Average Air Pressure (hPa)":1015.855,"Average Humidity (%)":75.9225,"Average Daily Precipitation (mm)":0.095,"mer_success":0,"rose_success":0,"syr_success":0,"savyb_success":0,"ries_success":0,"cabsav_success":0,"char_success":0,"pinot_success":0},"geometry":{"type":"Point","coordinates":[-78.39319,42.57462]}},{"type":"Feature","properties":{"":120,"zip":14041,"city":"Dayton","state_id":"NY","state_name":"New York","county_name":"Cattaraugus","Average Temperature (Kelvin)":271.1175,"Average Air Pressure (hPa)":1015.855,"Average Humidity (%)":75.9225,"Average Daily Precipitation (mm)":0.095,"mer_success":0,"rose_success":0,"syr_success":0,"savyb_success":0,"ries_success":0,"cabsav_success":0,"char_success":0,"pinot_success":0},"geometry":{"type":"Point","coordinates":[-78.97358,42.40358]}},{"type":"Feature","properties":{"":121,"zip":14048,"city":"Dunkirk","state_id":"NY","state_name":"New York","county_name":"Chautauqua","Average Temperature (Kelvin)":271.1175,"Average Air Pressure (hPa)":1015.855,"Average Humidity (%)":75.9225,"Average Daily Precipitation (mm)":0.095,"mer_success":0,"rose_success":0,"syr_success":0,"savyb_success":0,"ries_success":0,"cabsav_success":0,"char_success":0,"pinot_success":0},"geometry":{"type":"Point","coordinates":[-79.31161,42.48052]}},{"type":"Feature","properties":{"":122,"zip":14414,"city":"Avon","state_id":"NY","state_name":"New York","county_name":"Livingston","Average Temperature (Kelvin)":271.15500000000003,"Average Air Pressure (hPa)":1015.9375,"Average Humidity (%)":78.5625,"Average Daily Precipitation (mm)":0.095,"mer_success":0,"rose_success":0,"syr_success":0,"savyb_success":0,"ries_success":0,"cabsav_success":0,"char_success":0,"pinot_success":0},"geometry":{"type":"Point","coordinates":[-77.73514,42.89349]}},{"type":"Feature","properties":{"":123,"zip":14415,"city":"Bellona","state_id":"NY","state_name":"New York","county_name":"Yates","Average Temperature (Kelvin)":271.15500000000003,"Average Air Pressure (hPa)":1015.9375,"Average Humidity (%)":78.5625,"Average Daily Precipitation (mm)":0.095,"mer_success":0,"rose_success":0,"syr_success":0,"savyb_success":0,"ries_success":0,"cabsav_success":0,"char_success":0,"pinot_success":0},"geometry":{"type":"Point","coordinates":[-77.01708,42.75548]}},{"type":"Feature","properties":{"":124,"zip":14420,"city":"Brockport","state_id":"NY","state_name":"New York","county_name":"Monroe","Average Temperature (Kelvin)":271.15500000000003,"Average Air Pressure (hPa)":1015.9375,"Average Humidity (%)":78.5625,"Average Daily Precipitation (mm)":0.095,"mer_success":0,"rose_success":0,"syr_success":0,"savyb_success":0,"ries_success":0,"cabsav_success":1,"char_success":0,"pinot_success":0},"geometry":{"type":"Point","coordinates":[-77.93455,43.211999999999996]}},{"type":"Feature","properties":{"":125,"zip":14424,"city":"Canandaigua","state_id":"NY","state_name":"New York","county_name":"Ontario","Average Temperature (Kelvin)":271.15500000000003,"Average Air Pressure (hPa)":1015.9375,"Average Humidity (%)":78.5625,"Average Daily Precipitation (mm)":0.095,"mer_success":0,"rose_success":0,"syr_success":0,"savyb_success":0,"ries_success":0,"cabsav_success":0,"char_success":0,"pinot_success":0},"geometry":{"type":"Point","coordinates":[-77.30818000000002,42.84815]}},{"type":"Feature","properties":{"":126,"zip":14529,"city":"Perkinsville","state_id":"NY","state_name":"New York","county_name":"Steuben","Average Temperature (Kelvin)":271.15500000000003,"Average Air Pressure (hPa)":1015.9375,"Average Humidity (%)":78.5625,"Average Daily Precipitation (mm)":0.095,"mer_success":0,"rose_success":0,"syr_success":0,"savyb_success":0,"ries_success":0,"cabsav_success":0,"char_success":0,"pinot_success":0},"geometry":{"type":"Point","coordinates":[-77.63825,42.539970000000004]}},{"type":"Feature","properties":{"":127,"zip":14707,"city":"Allentown","state_id":"NY","state_name":"New York","county_name":"Allegany","Average Temperature (Kelvin)":271.1175,"Average Air Pressure (hPa)":1015.855,"Average Humidity (%)":75.9225,"Average Daily Precipitation (mm)":0.095,"mer_success":0,"rose_success":0,"syr_success":0,"savyb_success":0,"ries_success":0,"cabsav_success":0,"char_success":0,"pinot_success":0},"geometry":{"type":"Point","coordinates":[-78.0605,42.07738]}},{"type":"Feature","properties":{"":128,"zip":14805,"city":"Alpine","state_id":"NY","state_name":"New York","county_name":"Schuyler","Average Temperature (Kelvin)":269.9725,"Average Air Pressure (hPa)":1015.9375,"Average Humidity (%)":78.4025,"Average Daily Precipitation (mm)":0.105,"mer_success":0,"rose_success":0,"syr_success":0,"savyb_success":0,"ries_success":0,"cabsav_success":0,"char_success":0,"pinot_success":0},"geometry":{"type":"Point","coordinates":[-76.72417,42.35884]}},{"type":"Feature","properties":{"":129,"zip":14814,"city":"Big Flats","state_id":"NY","state_name":"New York","county_name":"Chemung","Average Temperature (Kelvin)":269.9725,"Average Air Pressure (hPa)":1015.9375,"Average Humidity (%)":78.4025,"Average Daily Precipitation (mm)":0.105,"mer_success":0,"rose_success":0,"syr_success":0,"savyb_success":0,"ries_success":0,"cabsav_success":1,"char_success":0,"pinot_success":0},"geometry":{"type":"Point","coordinates":[-76.95274,42.15003]}},{"type":"Feature","properties":{"":130,"zip":15001,"city":"Aliquippa","state_id":"PA","state_name":"Pennsylvania","county_name":"Beaver","Average Temperature (Kelvin)":272.41,"Average Air Pressure (hPa)":1017.055,"Average Humidity (%)":77.96249999999998,"Average Daily Precipitation (mm)":0.1125,"mer_success":0,"rose_success":0,"syr_success":0,"savyb_success":0,"ries_success":0,"cabsav_success":0,"char_success":0,"pinot_success":0},"geometry":{"type":"Point","coordinates":[-80.31976,40.59209]}},{"type":"Feature","properties":{"":131,"zip":15006,"city":"Bairdford","state_id":"PA","state_name":"Pennsylvania","county_name":"Allegheny","Average Temperature (Kelvin)":272.41,"Average Air Pressure (hPa)":1017.055,"Average Humidity (%)":77.96249999999998,"Average Daily Precipitation (mm)":0.1125,"mer_success":0,"rose_success":0,"syr_success":0,"savyb_success":0,"ries_success":0,"cabsav_success":0,"char_success":0,"pinot_success":0},"geometry":{"type":"Point","coordinates":[-79.87680999999998,40.63357]}},{"type":"Feature","properties":{"":132,"zip":15012,"city":"Belle Vernon","state_id":"PA","state_name":"Pennsylvania","county_name":"Westmoreland","Average Temperature (Kelvin)":272.41,"Average Air Pressure (hPa)":1017.055,"Average Humidity (%)":77.96249999999998,"Average Daily Precipitation (mm)":0.1125,"mer_success":0,"rose_success":0,"syr_success":0,"savyb_success":1,"ries_success":0,"cabsav_success":0,"char_success":0,"pinot_success":0},"geometry":{"type":"Point","coordinates":[-79.81218,40.15883]}},{"type":"Feature","properties":{"":133,"zip":15401,"city":"Uniontown","state_id":"PA","state_name":"Pennsylvania","county_name":"Fayette","Average Temperature (Kelvin)":272.41,"Average Air Pressure (hPa)":1017.055,"Average Humidity (%)":77.96249999999998,"Average Daily Precipitation (mm)":0.1125,"mer_success":0,"rose_success":0,"syr_success":0,"savyb_success":0,"ries_success":0,"cabsav_success":0,"char_success":0,"pinot_success":0},"geometry":{"type":"Point","coordinates":[-79.74724,39.90108]}},{"type":"Feature","properties":{"":134,"zip":15521,"city":"Alum Bank","state_id":"PA","state_name":"Pennsylvania","county_name":"Bedford","Average Temperature (Kelvin)":272.41,"Average Air Pressure (hPa)":1017.055,"Average Humidity (%)":77.96249999999998,"Average Daily Precipitation (mm)":0.1125,"mer_success":0,"rose_success":0,"syr_success":0,"savyb_success":1,"ries_success":0,"cabsav_success":0,"char_success":0,"pinot_success":0},"geometry":{"type":"Point","coordinates":[-78.635,40.19912]}},{"type":"Feature","properties":{"":135,"zip":15673,"city":"North Apollo","state_id":"PA","state_name":"Pennsylvania","county_name":"Armstrong","Average Temperature (Kelvin)":272.41,"Average Air Pressure (hPa)":1017.055,"Average Humidity (%)":77.96249999999998,"Average Daily Precipitation (mm)":0.1125,"mer_success":0,"rose_success":0,"syr_success":0,"savyb_success":0,"ries_success":0,"cabsav_success":0,"char_success":0,"pinot_success":0},"geometry":{"type":"Point","coordinates":[-79.5563,40.5938]}},{"type":"Feature","properties":{"":136,"zip":15681,"city":"Saltsburg","state_id":"PA","state_name":"Pennsylvania","county_name":"Indiana","Average Temperature (Kelvin)":272.41,"Average Air Pressure (hPa)":1017.055,"Average Humidity (%)":77.96249999999998,"Average Daily Precipitation (mm)":0.1125,"mer_success":0,"rose_success":0,"syr_success":0,"savyb_success":0,"ries_success":0,"cabsav_success":0,"char_success":0,"pinot_success":0},"geometry":{"type":"Point","coordinates":[-79.43852,40.50095]}},{"type":"Feature","properties":{"":137,"zip":15714,"city":"Northern Cambria","state_id":"PA","state_name":"Pennsylvania","county_name":"Cambria","Average Temperature (Kelvin)":272.41,"Average Air Pressure (hPa)":1017.055,"Average Humidity (%)":77.96249999999998,"Average Daily Precipitation (mm)":0.1125,"mer_success":0,"rose_success":0,"syr_success":0,"savyb_success":0,"ries_success":0,"cabsav_success":0,"char_success":0,"pinot_success":0},"geometry":{"type":"Point","coordinates":[-78.82308,40.64535]}},{"type":"Feature","properties":{"":138,"zip":15721,"city":"Burnside","state_id":"PA","state_name":"Pennsylvania","county_name":"Clearfield","Average Temperature (Kelvin)":272.41,"Average Air Pressure (hPa)":1017.055,"Average Humidity (%)":77.96249999999998,"Average Daily Precipitation (mm)":0.1125,"mer_success":0,"rose_success":0,"syr_success":0,"savyb_success":0,"ries_success":0,"cabsav_success":0,"char_success":0,"pinot_success":0},"geometry":{"type":"Point","coordinates":[-78.79247,40.81462]}},{"type":"Feature","properties":{"":139,"zip":15821,"city":"Benezett","state_id":"PA","state_name":"Pennsylvania","county_name":"Elk","Average Temperature (Kelvin)":270.915,"Average Air Pressure (hPa)":1016.6275,"Average Humidity (%)":77.78750000000002,"Average Daily Precipitation (mm)":0.1375,"mer_success":0,"rose_success":0,"syr_success":0,"savyb_success":0,"ries_success":0,"cabsav_success":0,"char_success":0,"pinot_success":1},"geometry":{"type":"Point","coordinates":[-78.36769,41.35537]}},{"type":"Feature","properties":{"":140,"zip":15832,"city":"Driftwood","state_id":"PA","state_name":"Pennsylvania","county_name":"Cameron","Average Temperature (Kelvin)":270.915,"Average Air Pressure (hPa)":1016.6275,"Average Humidity (%)":77.78750000000002,"Average Daily Precipitation (mm)":0.1375,"mer_success":0,"rose_success":0,"syr_success":0,"savyb_success":0,"ries_success":0,"cabsav_success":0,"char_success":0,"pinot_success":1},"geometry":{"type":"Point","coordinates":[-78.19169000000002,41.35637]}},{"type":"Feature","properties":{"":141,"zip":16001,"city":"Butler","state_id":"PA","state_name":"Pennsylvania","county_name":"Butler","Average Temperature (Kelvin)":272.41,"Average Air Pressure (hPa)":1017.055,"Average Humidity (%)":77.96249999999998,"Average Daily Precipitation (mm)":0.1125,"mer_success":0,"rose_success":0,"syr_success":0,"savyb_success":0,"ries_success":0,"cabsav_success":0,"char_success":0,"pinot_success":0},"geometry":{"type":"Point","coordinates":[-79.9438,40.9095]}},{"type":"Feature","properties":{"":142,"zip":16028,"city":"East Brady","state_id":"PA","state_name":"Pennsylvania","county_name":"Clarion","Average Temperature (Kelvin)":272.41,"Average Air Pressure (hPa)":1017.055,"Average Humidity (%)":77.96249999999998,"Average Daily Precipitation (mm)":0.1125,"mer_success":0,"rose_success":0,"syr_success":0,"savyb_success":0,"ries_success":0,"cabsav_success":0,"char_success":0,"pinot_success":0},"geometry":{"type":"Point","coordinates":[-79.63701999999998,40.95792]}},{"type":"Feature","properties":{"":143,"zip":16101,"city":"New Castle","state_id":"PA","state_name":"Pennsylvania","county_name":"Lawrence","Average Temperature (Kelvin)":272.41,"Average Air Pressure (hPa)":1017.055,"Average Humidity (%)":77.96249999999998,"Average Daily Precipitation (mm)":0.1125,"mer_success":0,"rose_success":0,"syr_success":0,"savyb_success":0,"ries_success":0,"cabsav_success":0,"char_success":0,"pinot_success":0},"geometry":{"type":"Point","coordinates":[-80.28716,40.98532]}},{"type":"Feature","properties":{"":144,"zip":16110,"city":"Adamsville","state_id":"PA","state_name":"Pennsylvania","county_name":"Crawford","Average Temperature (Kelvin)":270.915,"Average Air Pressure (hPa)":1016.6275,"Average Humidity (%)":77.78750000000002,"Average Daily Precipitation (mm)":0.1375,"mer_success":0,"rose_success":0,"syr_success":0,"savyb_success":0,"ries_success":0,"cabsav_success":0,"char_success":0,"pinot_success":1},"geometry":{"type":"Point","coordinates":[-80.3849,41.50609]}},{"type":"Feature","properties":{"":145,"zip":16217,"city":"Cooksburg","state_id":"PA","state_name":"Pennsylvania","county_name":"Forest","Average Temperature (Kelvin)":270.915,"Average Air Pressure (hPa)":1016.6275,"Average Humidity (%)":77.78750000000002,"Average Daily Precipitation (mm)":0.1375,"mer_success":0,"rose_success":0,"syr_success":0,"savyb_success":0,"ries_success":0,"cabsav_success":0,"char_success":0,"pinot_success":1},"geometry":{"type":"Point","coordinates":[-79.18477,41.33655]}},{"type":"Feature","properties":{"":146,"zip":16301,"city":"Oil City","state_id":"PA","state_name":"Pennsylvania","county_name":"Venango","Average Temperature (Kelvin)":270.915,"Average Air Pressure (hPa)":1016.6275,"Average Humidity (%)":77.78750000000002,"Average Daily Precipitation (mm)":0.1375,"mer_success":0,"rose_success":0,"syr_success":0,"savyb_success":0,"ries_success":0,"cabsav_success":0,"char_success":0,"pinot_success":1},"geometry":{"type":"Point","coordinates":[-79.6353,41.45555]}},{"type":"Feature","properties":{"":148,"zip":16601,"city":"Altoona","state_id":"PA","state_name":"Pennsylvania","county_name":"Blair","Average Temperature (Kelvin)":272.41,"Average Air Pressure (hPa)":1017.055,"Average Humidity (%)":77.96249999999998,"Average Daily Precipitation (mm)":0.1125,"mer_success":0,"rose_success":0,"syr_success":0,"savyb_success":0,"ries_success":0,"cabsav_success":0,"char_success":0,"pinot_success":0},"geometry":{"type":"Point","coordinates":[-78.37018,40.555659999999996]}},{"type":"Feature","properties":{"":149,"zip":16611,"city":"Alexandria","state_id":"PA","state_name":"Pennsylvania","county_name":"Huntingdon","Average Temperature (Kelvin)":272.41,"Average Air Pressure (hPa)":1017.055,"Average Humidity (%)":77.96249999999998,"Average Daily Precipitation (mm)":0.1125,"mer_success":0,"rose_success":0,"syr_success":0,"savyb_success":0,"ries_success":0,"cabsav_success":0,"char_success":0,"pinot_success":0},"geometry":{"type":"Point","coordinates":[-78.10768,40.5674]}},{"type":"Feature","properties":{"":150,"zip":16677,"city":"Sandy Ridge","state_id":"PA","state_name":"Pennsylvania","county_name":"Centre","Average Temperature (Kelvin)":272.41,"Average Air Pressure (hPa)":1017.055,"Average Humidity (%)":77.96249999999998,"Average Daily Precipitation (mm)":0.1125,"mer_success":0,"rose_success":0,"syr_success":0,"savyb_success":0,"ries_success":0,"cabsav_success":0,"char_success":0,"pinot_success":0},"geometry":{"type":"Point","coordinates":[-78.24365999999998,40.811809999999994]}},{"type":"Feature","properties":{"":151,"zip":16720,"city":"Austin","state_id":"PA","state_name":"Pennsylvania","county_name":"Potter","Average Temperature (Kelvin)":271.1175,"Average Air Pressure (hPa)":1015.855,"Average Humidity (%)":75.9225,"Average Daily Precipitation (mm)":0.095,"mer_success":0,"rose_success":0,"syr_success":0,"savyb_success":0,"ries_success":0,"cabsav_success":0,"char_success":0,"pinot_success":0},"geometry":{"type":"Point","coordinates":[-78.03707,41.5841]}},{"type":"Feature","properties":{"":152,"zip":16914,"city":"Columbia Cross Roads","state_id":"PA","state_name":"Pennsylvania","county_name":"Bradford","Average Temperature (Kelvin)":269.9725,"Average Air Pressure (hPa)":1015.9375,"Average Humidity (%)":78.4025,"Average Daily Precipitation (mm)":0.105,"mer_success":0,"rose_success":0,"syr_success":0,"savyb_success":0,"ries_success":0,"cabsav_success":1,"char_success":0,"pinot_success":0},"geometry":{"type":"Point","coordinates":[-76.78241,41.86377]}},{"type":"Feature","properties":{"":153,"zip":17002,"city":"Allensville","state_id":"PA","state_name":"Pennsylvania","county_name":"Mifflin","Average Temperature (Kelvin)":275.27,"Average Air Pressure (hPa)":1018.9625,"Average Humidity (%)":72.985,"Average Daily Precipitation (mm)":0.1375,"mer_success":0,"rose_success":0,"syr_success":0,"savyb_success":0,"ries_success":0,"cabsav_success":0,"char_success":0,"pinot_success":1},"geometry":{"type":"Point","coordinates":[-77.83922,40.50755]}},{"type":"Feature","properties":{"":154,"zip":17003,"city":"Annville","state_id":"PA","state_name":"Pennsylvania","county_name":"Lebanon","Average Temperature (Kelvin)":272.69,"Average Air Pressure (hPa)":1017.8225,"Average Humidity (%)":73.1,"Average Daily Precipitation (mm)":0.11500000000000002,"mer_success":0,"rose_success":0,"syr_success":0,"savyb_success":0,"ries_success":0,"cabsav_success":0,"char_success":1,"pinot_success":0},"geometry":{"type":"Point","coordinates":[-76.5649,40.36394]}},{"type":"Feature","properties":{"":155,"zip":17005,"city":"Berrysburg","state_id":"PA","state_name":"Pennsylvania","county_name":"Dauphin","Average Temperature (Kelvin)":272.69,"Average Air Pressure (hPa)":1017.8225,"Average Humidity (%)":73.1,"Average Daily Precipitation (mm)":0.11500000000000002,"mer_success":0,"rose_success":0,"syr_success":0,"savyb_success":0,"ries_success":0,"cabsav_success":0,"char_success":0,"pinot_success":0},"geometry":{"type":"Point","coordinates":[-76.80968,40.60285]}},{"type":"Feature","properties":{"":156,"zip":17006,"city":"Blain","state_id":"PA","state_name":"Pennsylvania","county_name":"Perry","Average Temperature (Kelvin)":275.27,"Average Air Pressure (hPa)":1018.9625,"Average Humidity (%)":72.985,"Average Daily Precipitation (mm)":0.1375,"mer_success":0,"rose_success":0,"syr_success":0,"savyb_success":0,"ries_success":0,"cabsav_success":0,"char_success":0,"pinot_success":1},"geometry":{"type":"Point","coordinates":[-77.54373000000002,40.28559]}},{"type":"Feature","properties":{"":157,"zip":17017,"city":"Dalmatia","state_id":"PA","state_name":"Pennsylvania","county_name":"Northumberland","Average Temperature (Kelvin)":272.69,"Average Air Pressure (hPa)":1017.8225,"Average Humidity (%)":73.1,"Average Daily Precipitation (mm)":0.11500000000000002,"mer_success":0,"rose_success":0,"syr_success":0,"savyb_success":0,"ries_success":0,"cabsav_success":0,"char_success":0,"pinot_success":0},"geometry":{"type":"Point","coordinates":[-76.88259000000002,40.64332]}},{"type":"Feature","properties":{"":158,"zip":17021,"city":"East Waterford","state_id":"PA","state_name":"Pennsylvania","county_name":"Juniata","Average Temperature (Kelvin)":275.27,"Average Air Pressure (hPa)":1018.9625,"Average Humidity (%)":72.985,"Average Daily Precipitation (mm)":0.1375,"mer_success":0,"rose_success":0,"syr_success":0,"savyb_success":0,"ries_success":0,"cabsav_success":0,"char_success":0,"pinot_success":1},"geometry":{"type":"Point","coordinates":[-77.65933000000003,40.33957]}},{"type":"Feature","properties":{"":159,"zip":17022,"city":"Elizabethtown","state_id":"PA","state_name":"Pennsylvania","county_name":"Lancaster","Average Temperature (Kelvin)":275.27,"Average Air Pressure (hPa)":1018.9625,"Average Humidity (%)":72.985,"Average Daily Precipitation (mm)":0.1375,"mer_success":0,"rose_success":0,"syr_success":0,"savyb_success":1,"ries_success":0,"cabsav_success":0,"char_success":0,"pinot_success":1},"geometry":{"type":"Point","coordinates":[-76.60866999999998,40.16632]}},{"type":"Feature","properties":{"":160,"zip":17301,"city":"Abbottstown","state_id":"PA","state_name":"Pennsylvania","county_name":"Adams","Average Temperature (Kelvin)":275.27,"Average Air Pressure (hPa)":1018.9625,"Average Humidity (%)":72.985,"Average Daily Precipitation (mm)":0.1375,"mer_success":0,"rose_success":0,"syr_success":0,"savyb_success":0,"ries_success":0,"cabsav_success":0,"char_success":0,"pinot_success":1},"geometry":{"type":"Point","coordinates":[-76.9803,39.89062]}},{"type":"Feature","properties":{"":161,"zip":17701,"city":"Williamsport","state_id":"PA","state_name":"Pennsylvania","county_name":"Lycoming","Average Temperature (Kelvin)":272.69,"Average Air Pressure (hPa)":1017.8225,"Average Humidity (%)":73.1,"Average Daily Precipitation (mm)":0.11500000000000002,"mer_success":0,"rose_success":0,"syr_success":0,"savyb_success":0,"ries_success":0,"cabsav_success":0,"char_success":0,"pinot_success":0},"geometry":{"type":"Point","coordinates":[-76.90231999999997,41.33749]}},{"type":"Feature","properties":{"":162,"zip":17812,"city":"Beaver Springs","state_id":"PA","state_name":"Pennsylvania","county_name":"Snyder","Average Temperature (Kelvin)":272.69,"Average Air Pressure (hPa)":1017.8225,"Average Humidity (%)":73.1,"Average Daily Precipitation (mm)":0.11500000000000002,"mer_success":0,"rose_success":0,"syr_success":0,"savyb_success":0,"ries_success":0,"cabsav_success":0,"char_success":0,"pinot_success":0},"geometry":{"type":"Point","coordinates":[-77.22815,40.74069]}},{"type":"Feature","properties":{"":163,"zip":17821,"city":"Danville","state_id":"PA","state_name":"Pennsylvania","county_name":"Montour","Average Temperature (Kelvin)":272.69,"Average Air Pressure (hPa)":1017.8225,"Average Humidity (%)":73.1,"Average Daily Precipitation (mm)":0.11500000000000002,"mer_success":0,"rose_success":0,"syr_success":0,"savyb_success":0,"ries_success":0,"cabsav_success":0,"char_success":0,"pinot_success":0},"geometry":{"type":"Point","coordinates":[-76.63927,40.98871]}},{"type":"Feature","properties":{"":164,"zip":17901,"city":"Pottsville","state_id":"PA","state_name":"Pennsylvania","county_name":"Schuylkill","Average Temperature (Kelvin)":272.69,"Average Air Pressure (hPa)":1017.8225,"Average Humidity (%)":73.1,"Average Daily Precipitation (mm)":0.11500000000000002,"mer_success":0,"rose_success":0,"syr_success":0,"savyb_success":0,"ries_success":0,"cabsav_success":0,"char_success":0,"pinot_success":0},"geometry":{"type":"Point","coordinates":[-76.25520999999998,40.69364]}},{"type":"Feature","properties":{"":165,"zip":18011,"city":"Alburtis","state_id":"PA","state_name":"Pennsylvania","county_name":"Lehigh","Average Temperature (Kelvin)":272.69,"Average Air Pressure (hPa)":1017.8225,"Average Humidity (%)":73.1,"Average Daily Precipitation (mm)":0.11500000000000002,"mer_success":0,"rose_success":0,"syr_success":0,"savyb_success":0,"ries_success":0,"cabsav_success":0,"char_success":1,"pinot_success":0},"geometry":{"type":"Point","coordinates":[-75.64643000000002,40.47124]}},{"type":"Feature","properties":{"":166,"zip":18013,"city":"Bangor","state_id":"PA","state_name":"Pennsylvania","county_name":"Northampton","Average Temperature (Kelvin)":272.69,"Average Air Pressure (hPa)":1017.8225,"Average Humidity (%)":73.1,"Average Daily Precipitation (mm)":0.11500000000000002,"mer_success":0,"rose_success":0,"syr_success":0,"savyb_success":0,"ries_success":0,"cabsav_success":0,"char_success":0,"pinot_success":0},"geometry":{"type":"Point","coordinates":[-75.17174,40.85301]}},{"type":"Feature","properties":{"":167,"zip":18030,"city":"Bowmanstown","state_id":"PA","state_name":"Pennsylvania","county_name":"Carbon","Average Temperature (Kelvin)":272.69,"Average Air Pressure (hPa)":1017.8225,"Average Humidity (%)":73.1,"Average Daily Precipitation (mm)":0.11500000000000002,"mer_success":0,"rose_success":0,"syr_success":0,"savyb_success":0,"ries_success":0,"cabsav_success":0,"char_success":1,"pinot_success":0},"geometry":{"type":"Point","coordinates":[-75.66404,40.80223]}},{"type":"Feature","properties":{"":168,"zip":18056,"city":"Hereford","state_id":"PA","state_name":"Pennsylvania","county_name":"Berks","Average Temperature (Kelvin)":272.69,"Average Air Pressure (hPa)":1017.8225,"Average Humidity (%)":73.1,"Average Daily Precipitation (mm)":0.11500000000000002,"mer_success":0,"rose_success":0,"syr_success":0,"savyb_success":0,"ries_success":0,"cabsav_success":0,"char_success":0,"pinot_success":0},"geometry":{"type":"Point","coordinates":[-75.54912,40.4491]}},{"type":"Feature","properties":{"":169,"zip":18077,"city":"Riegelsville","state_id":"PA","state_name":"Pennsylvania","county_name":"Bucks","Average Temperature (Kelvin)":272.69,"Average Air Pressure (hPa)":1017.8225,"Average Humidity (%)":73.1,"Average Daily Precipitation (mm)":0.11500000000000002,"mer_success":0,"rose_success":0,"syr_success":0,"savyb_success":0,"ries_success":0,"cabsav_success":0,"char_success":0,"pinot_success":0},"geometry":{"type":"Point","coordinates":[-75.2435,40.56687]}},{"type":"Feature","properties":{"":170,"zip":18201,"city":"Hazleton","state_id":"PA","state_name":"Pennsylvania","county_name":"Luzerne","Average Temperature (Kelvin)":272.69,"Average Air Pressure (hPa)":1017.8225,"Average Humidity (%)":73.1,"Average Daily Precipitation (mm)":0.11500000000000002,"mer_success":0,"rose_success":0,"syr_success":0,"savyb_success":0,"ries_success":0,"cabsav_success":0,"char_success":0,"pinot_success":0},"geometry":{"type":"Point","coordinates":[-75.95625,40.948879999999996]}},{"type":"Feature","properties":{"":171,"zip":18324,"city":"Bushkill","state_id":"PA","state_name":"Pennsylvania","county_name":"Pike","Average Temperature (Kelvin)":272.69,"Average Air Pressure (hPa)":1017.8225,"Average Humidity (%)":73.1,"Average Daily Precipitation (mm)":0.11500000000000002,"mer_success":0,"rose_success":0,"syr_success":0,"savyb_success":0,"ries_success":0,"cabsav_success":0,"char_success":0,"pinot_success":0},"geometry":{"type":"Point","coordinates":[-75.00303000000002,41.15197]}},{"type":"Feature","properties":{"":172,"zip":18403,"city":"Archbald","state_id":"PA","state_name":"Pennsylvania","county_name":"Lackawanna","Average Temperature (Kelvin)":272.69,"Average Air Pressure (hPa)":1017.8225,"Average Humidity (%)":73.1,"Average Daily Precipitation (mm)":0.11500000000000002,"mer_success":0,"rose_success":0,"syr_success":0,"savyb_success":0,"ries_success":0,"cabsav_success":0,"char_success":0,"pinot_success":0},"geometry":{"type":"Point","coordinates":[-75.52959,41.50042]}},{"type":"Feature","properties":{"":173,"zip":18413,"city":"Clifford","state_id":"PA","state_name":"Pennsylvania","county_name":"Susquehanna","Average Temperature (Kelvin)":272.69,"Average Air Pressure (hPa)":1017.8225,"Average Humidity (%)":73.1,"Average Daily Precipitation (mm)":0.11500000000000002,"mer_success":0,"rose_success":0,"syr_success":0,"savyb_success":0,"ries_success":0,"cabsav_success":0,"char_success":0,"pinot_success":0},"geometry":{"type":"Point","coordinates":[-75.58949,41.64816]}},{"type":"Feature","properties":{"":174,"zip":19087,"city":"Wayne","state_id":"PA","state_name":"Pennsylvania","county_name":"Chester","Average Temperature (Kelvin)":274.0775,"Average Air Pressure (hPa)":1018.5825,"Average Humidity (%)":70.28750000000001,"Average Daily Precipitation (mm)":0.15,"mer_success":0,"rose_success":0,"syr_success":0,"savyb_success":0,"ries_success":0,"cabsav_success":0,"char_success":0,"pinot_success":0},"geometry":{"type":"Point","coordinates":[-75.39986999999998,40.06116]}},{"type":"Feature","properties":{"":175,"zip":19102,"city":"Philadelphia","state_id":"PA","state_name":"Pennsylvania","county_name":"Philadelphia","Average Temperature (Kelvin)":274.0775,"Average Air Pressure (hPa)":1018.5825,"Average Humidity (%)":70.28750000000001,"Average Daily Precipitation (mm)":0.15,"mer_success":0,"rose_success":0,"syr_success":0,"savyb_success":0,"ries_success":0,"cabsav_success":0,"char_success":0,"pinot_success":0},"geometry":{"type":"Point","coordinates":[-75.16549,39.952870000000004]}},{"type":"Feature","properties":{"":176,"zip":19701,"city":"Bear","state_id":"DE","state_name":"Delaware","county_name":"New Castle","Average Temperature (Kelvin)":274.0775,"Average Air Pressure (hPa)":1018.5825,"Average Humidity (%)":70.28750000000001,"Average Daily Precipitation (mm)":0.15,"mer_success":0,"rose_success":0,"syr_success":0,"savyb_success":0,"ries_success":0,"cabsav_success":0,"char_success":0,"pinot_success":0},"geometry":{"type":"Point","coordinates":[-75.69939000000002,39.58435]}},{"type":"Feature","properties":{"":177,"zip":20105,"city":"Aldie","state_id":"VA","state_name":"Virginia","county_name":"Loudoun","Average Temperature (Kelvin)":275.39,"Average Air Pressure (hPa)":1018.99,"Average Humidity (%)":70.985,"Average Daily Precipitation (mm)":0.105,"mer_success":0,"rose_success":0,"syr_success":0,"savyb_success":0,"ries_success":0,"cabsav_success":0,"char_success":0,"pinot_success":0},"geometry":{"type":"Point","coordinates":[-77.61001999999998,38.96273]}},{"type":"Feature","properties":{"":178,"zip":20106,"city":"Amissville","state_id":"VA","state_name":"Virginia","county_name":"Culpeper","Average Temperature (Kelvin)":275.39,"Average Air Pressure (hPa)":1018.99,"Average Humidity (%)":70.985,"Average Daily Precipitation (mm)":0.105,"mer_success":0,"rose_success":0,"syr_success":0,"savyb_success":0,"ries_success":0,"cabsav_success":0,"char_success":0,"pinot_success":0},"geometry":{"type":"Point","coordinates":[-78.01175,38.68699]}},{"type":"Feature","properties":{"":179,"zip":20109,"city":"Manassas","state_id":"VA","state_name":"Virginia","county_name":"Prince William","Average Temperature (Kelvin)":275.39,"Average Air Pressure (hPa)":1018.99,"Average Humidity (%)":70.985,"Average Daily Precipitation (mm)":0.105,"mer_success":0,"rose_success":0,"syr_success":0,"savyb_success":0,"ries_success":0,"cabsav_success":0,"char_success":0,"pinot_success":0},"geometry":{"type":"Point","coordinates":[-77.52658000000002,38.79282]}},{"type":"Feature","properties":{"":180,"zip":20110,"city":"Manassas","state_id":"VA","state_name":"Virginia","county_name":"Manassas","Average Temperature (Kelvin)":275.39,"Average Air Pressure (hPa)":1018.99,"Average Humidity (%)":70.985,"Average Daily Precipitation (mm)":0.105,"mer_success":0,"rose_success":0,"syr_success":0,"savyb_success":0,"ries_success":0,"cabsav_success":0,"char_success":0,"pinot_success":0},"geometry":{"type":"Point","coordinates":[-77.48591,38.74711]}},{"type":"Feature","properties":{"":181,"zip":20115,"city":"Marshall","state_id":"VA","state_name":"Virginia","county_name":"Fauquier","Average Temperature (Kelvin)":275.39,"Average Air Pressure (hPa)":1018.99,"Average Humidity (%)":70.985,"Average Daily Precipitation (mm)":0.105,"mer_success":0,"rose_success":0,"syr_success":0,"savyb_success":0,"ries_success":0,"cabsav_success":0,"char_success":0,"pinot_success":0},"geometry":{"type":"Point","coordinates":[-77.9001,38.82155]}},{"type":"Feature","properties":{"":182,"zip":20120,"city":"Centreville","state_id":"VA","state_name":"Virginia","county_name":"Fairfax","Average Temperature (Kelvin)":275.39,"Average Air Pressure (hPa)":1018.99,"Average Humidity (%)":70.985,"Average Daily Precipitation (mm)":0.105,"mer_success":0,"rose_success":0,"syr_success":0,"savyb_success":0,"ries_success":0,"cabsav_success":0,"char_success":0,"pinot_success":0},"geometry":{"type":"Point","coordinates":[-77.47715,38.85433]}},{"type":"Feature","properties":{"":183,"zip":20130,"city":"Paris","state_id":"VA","state_name":"Virginia","county_name":"Clarke","Average Temperature (Kelvin)":275.39,"Average Air Pressure (hPa)":1018.99,"Average Humidity (%)":70.985,"Average Daily Precipitation (mm)":0.105,"mer_success":0,"rose_success":0,"syr_success":0,"savyb_success":0,"ries_success":0,"cabsav_success":0,"char_success":0,"pinot_success":0},"geometry":{"type":"Point","coordinates":[-77.9491,39.02747]}},{"type":"Feature","properties":{"":184,"zip":20601,"city":"Waldorf","state_id":"MD","state_name":"Maryland","county_name":"Charles","Average Temperature (Kelvin)":275.5325,"Average Air Pressure (hPa)":1019.04,"Average Humidity (%)":71.025,"Average Daily Precipitation (mm)":0.125,"mer_success":0,"rose_success":0,"syr_success":0,"savyb_success":0,"ries_success":0,"cabsav_success":0,"char_success":0,"pinot_success":0},"geometry":{"type":"Point","coordinates":[-76.85088,38.6137]}},{"type":"Feature","properties":{"":185,"zip":20606,"city":"Abell","state_id":"MD","state_name":"Maryland","county_name":"St. Mary's","Average Temperature (Kelvin)":275.5325,"Average Air Pressure (hPa)":1019.04,"Average Humidity (%)":71.025,"Average Daily Precipitation (mm)":0.125,"mer_success":0,"rose_success":0,"syr_success":0,"savyb_success":0,"ries_success":0,"cabsav_success":0,"char_success":0,"pinot_success":0},"geometry":{"type":"Point","coordinates":[-76.73699,38.25952]}},{"type":"Feature","properties":{"":186,"zip":20607,"city":"Accokeek","state_id":"MD","state_name":"Maryland","county_name":"Prince George's","Average Temperature (Kelvin)":275.5325,"Average Air Pressure (hPa)":1019.04,"Average Humidity (%)":71.025,"Average Daily Precipitation (mm)":0.125,"mer_success":0,"rose_success":0,"syr_success":0,"savyb_success":0,"ries_success":0,"cabsav_success":0,"char_success":0,"pinot_success":0},"geometry":{"type":"Point","coordinates":[-77.02018000000002,38.67227000000001]}},{"type":"Feature","properties":{"":187,"zip":20615,"city":"Broomes Island","state_id":"MD","state_name":"Maryland","county_name":"Calvert","Average Temperature (Kelvin)":275.5325,"Average Air Pressure (hPa)":1019.04,"Average Humidity (%)":71.025,"Average Daily Precipitation (mm)":0.125,"mer_success":0,"rose_success":0,"syr_success":0,"savyb_success":0,"ries_success":0,"cabsav_success":0,"char_success":0,"pinot_success":0},"geometry":{"type":"Point","coordinates":[-76.54786,38.42013]}},{"type":"Feature","properties":{"":188,"zip":20701,"city":"Annapolis Junction","state_id":"MD","state_name":"Maryland","county_name":"Howard","Average Temperature (Kelvin)":275.27,"Average Air Pressure (hPa)":1018.9625,"Average Humidity (%)":72.985,"Average Daily Precipitation (mm)":0.1375,"mer_success":0,"rose_success":0,"syr_success":0,"savyb_success":0,"ries_success":0,"cabsav_success":0,"char_success":0,"pinot_success":1},"geometry":{"type":"Point","coordinates":[-76.78423000000002,39.12627]}},{"type":"Feature","properties":{"":189,"zip":20711,"city":"Lothian","state_id":"MD","state_name":"Maryland","county_name":"Anne Arundel","Average Temperature (Kelvin)":275.5325,"Average Air Pressure (hPa)":1019.04,"Average Humidity (%)":71.025,"Average Daily Precipitation (mm)":0.125,"mer_success":0,"rose_success":0,"syr_success":0,"savyb_success":0,"ries_success":0,"cabsav_success":0,"char_success":0,"pinot_success":0},"geometry":{"type":"Point","coordinates":[-76.65199,38.80509]}},{"type":"Feature","properties":{"":190,"zip":21001,"city":"Aberdeen","state_id":"MD","state_name":"Maryland","county_name":"Harford","Average Temperature (Kelvin)":275.27,"Average Air Pressure (hPa)":1018.9625,"Average Humidity (%)":72.985,"Average Daily Precipitation (mm)":0.1375,"mer_success":0,"rose_success":0,"syr_success":0,"savyb_success":1,"ries_success":0,"cabsav_success":0,"char_success":0,"pinot_success":1},"geometry":{"type":"Point","coordinates":[-76.2006,39.51073]}},{"type":"Feature","properties":{"":191,"zip":21013,"city":"Baldwin","state_id":"MD","state_name":"Maryland","county_name":"Baltimore","Average Temperature (Kelvin)":275.27,"Average Air Pressure (hPa)":1018.9625,"Average Humidity (%)":72.985,"Average Daily Precipitation (mm)":0.1375,"mer_success":0,"rose_success":0,"syr_success":0,"savyb_success":1,"ries_success":0,"cabsav_success":0,"char_success":0,"pinot_success":1},"geometry":{"type":"Point","coordinates":[-76.48647,39.50906]}},{"type":"Feature","properties":{"":192,"zip":21520,"city":"Accident","state_id":"MD","state_name":"Maryland","county_name":"Garrett","Average Temperature (Kelvin)":272.41,"Average Air Pressure (hPa)":1017.055,"Average Humidity (%)":77.96249999999998,"Average Daily Precipitation (mm)":0.1125,"mer_success":0,"rose_success":0,"syr_success":0,"savyb_success":0,"ries_success":0,"cabsav_success":0,"char_success":0,"pinot_success":0},"geometry":{"type":"Point","coordinates":[-79.3015,39.62474]}},{"type":"Feature","properties":{"":193,"zip":21601,"city":"Easton","state_id":"MD","state_name":"Maryland","county_name":"Talbot","Average Temperature (Kelvin)":275.27,"Average Air Pressure (hPa)":1018.9625,"Average Humidity (%)":72.985,"Average Daily Precipitation (mm)":0.1375,"mer_success":0,"rose_success":0,"syr_success":0,"savyb_success":0,"ries_success":0,"cabsav_success":0,"char_success":0,"pinot_success":1},"geometry":{"type":"Point","coordinates":[-76.08178000000002,38.79377]}},{"type":"Feature","properties":{"":194,"zip":21607,"city":"Barclay","state_id":"MD","state_name":"Maryland","county_name":"Queen Anne's","Average Temperature (Kelvin)":275.27,"Average Air Pressure (hPa)":1018.9625,"Average Humidity (%)":72.985,"Average Daily Precipitation (mm)":0.1375,"mer_success":0,"rose_success":0,"syr_success":0,"savyb_success":0,"ries_success":0,"cabsav_success":0,"char_success":0,"pinot_success":1},"geometry":{"type":"Point","coordinates":[-75.85418,39.13272]}},{"type":"Feature","properties":{"":195,"zip":21613,"city":"Cambridge","state_id":"MD","state_name":"Maryland","county_name":"Dorchester","Average Temperature (Kelvin)":275.5325,"Average Air Pressure (hPa)":1019.04,"Average Humidity (%)":71.025,"Average Daily Precipitation (mm)":0.125,"mer_success":0,"rose_success":0,"syr_success":0,"savyb_success":0,"ries_success":0,"cabsav_success":0,"char_success":0,"pinot_success":0},"geometry":{"type":"Point","coordinates":[-76.07341,38.49315]}},{"type":"Feature","properties":{"":196,"zip":21629,"city":"Denton","state_id":"MD","state_name":"Maryland","county_name":"Caroline","Average Temperature (Kelvin)":275.27,"Average Air Pressure (hPa)":1018.9625,"Average Humidity (%)":72.985,"Average Daily Precipitation (mm)":0.1375,"mer_success":0,"rose_success":0,"syr_success":0,"savyb_success":0,"ries_success":0,"cabsav_success":0,"char_success":0,"pinot_success":1},"geometry":{"type":"Point","coordinates":[-75.82791999999998,38.86273]}},{"type":"Feature","properties":{"":197,"zip":21701,"city":"Frederick","state_id":"MD","state_name":"Maryland","county_name":"Frederick","Average Temperature (Kelvin)":275.27,"Average Air Pressure (hPa)":1018.9625,"Average Humidity (%)":72.985,"Average Daily Precipitation (mm)":0.1375,"mer_success":0,"rose_success":0,"syr_success":0,"savyb_success":0,"ries_success":0,"cabsav_success":1,"char_success":0,"pinot_success":1},"geometry":{"type":"Point","coordinates":[-77.33495,39.44605]}},{"type":"Feature","properties":{"":198,"zip":21801,"city":"Salisbury","state_id":"MD","state_name":"Maryland","county_name":"Wicomico","Average Temperature (Kelvin)":275.5325,"Average Air Pressure (hPa)":1019.04,"Average Humidity (%)":71.025,"Average Daily Precipitation (mm)":0.125,"mer_success":0,"rose_success":0,"syr_success":0,"savyb_success":0,"ries_success":0,"cabsav_success":0,"char_success":1,"pinot_success":0},"geometry":{"type":"Point","coordinates":[-75.64148,38.38055]}},{"type":"Feature","properties":{"":199,"zip":21901,"city":"North East","state_id":"MD","state_name":"Maryland","county_name":"Cecil","Average Temperature (Kelvin)":275.27,"Average Air Pressure (hPa)":1018.9625,"Average Humidity (%)":72.985,"Average Daily Precipitation (mm)":0.1375,"mer_success":0,"rose_success":0,"syr_success":0,"savyb_success":1,"ries_success":0,"cabsav_success":0,"char_success":0,"pinot_success":1},"geometry":{"type":"Point","coordinates":[-75.95843,39.58572]}},{"type":"Feature","properties":{"":200,"zip":22046,"city":"Falls Church","state_id":"VA","state_name":"Virginia","county_name":"Falls Church","Average Temperature (Kelvin)":275.39,"Average Air Pressure (hPa)":1018.99,"Average Humidity (%)":70.985,"Average Daily Precipitation (mm)":0.105,"mer_success":0,"rose_success":0,"syr_success":0,"savyb_success":0,"ries_success":0,"cabsav_success":0,"char_success":0,"pinot_success":0},"geometry":{"type":"Point","coordinates":[-77.18075999999998,38.88711]}},